{"type":"FeatureCollection","features":[{"type":"Feature","geometry":{"coordinates":[2.3521819392654324,48.88641675082494],"type":"Point"},"properties":{"id_projet":"ELEMENTAIRES (ann\u00e9e scolaire 2019\/2020)","libelle":"RICHOMME (9) ELEM","adresse":"9 RUE RICHOMME","arr_libelle":"18\u00e8me Ardt","arr_insee":75118,"annee_scol":null,"type_etabl":null,"created_user":null,"created_date":null,"last_edited_user":null,"last_edited_date":null,"geo_point_2d":{"lon":2.3521819392654324,"lat":48.88641675082494}}},{"type":"Feature","geometry":{"coordinates":[2.3645871569639865,48.892715723812195],"type":"Point"},"properties":{"id_projet":"ELEMENTAIRES (ann\u00e9e scolaire 2019\/2020)","libelle":"CUGNOT (30) POLY","adresse":"30 RUE CUGNOT","arr_libelle":"18\u00e8me Ardt","arr_insee":75118,"annee_scol":null,"type_etabl":null,"created_user":null,"created_date":null,"last_edited_user":null,"last_edited_date":null,"geo_point_2d":{"lon":2.3645871569639865,"lat":48.892715723812195}}},{"type":"Feature","geometry":{"coordinates":[2.3686660481548145,48.89989353303013],"type":"Point"},"properties":{"id_projet":"ELEMENTAIRES (ann\u00e9e scolaire 2018\/2019)","libelle":"CHARLES HERMITE (4) ELEM","adresse":"4 rue CHARLES HERMITE","arr_libelle":"18\u00e8me Ardt","arr_insee":75118,"annee_scol":null,"type_etabl":null,"created_user":null,"created_date":null,"last_edited_user":null,"last_edited_date":null,"geo_point_2d":{"lon":2.3686660481548145,"lat":48.89989353303013}}},{"type":"Feature","geometry":{"coordinates":[2.346376359941506,48.885717263786006],"type":"Point"},"properties":{"id_projet":"3260","libelle":"ANDRE DEL SARTE (11) MAT","adresse":"11 rue ANDRE DEL SARTE","arr_libelle":"18\u00e8me Ardt","arr_insee":75118,"annee_scol":null,"type_etabl":null,"created_user":null,"created_date":null,"last_edited_user":null,"last_edited_date":null,"geo_point_2d":{"lon":2.346376359941506,"lat":48.885717263786006}}},{"type":"Feature","geometry":{"coordinates":[2.342251148831808,48.89912761918278],"type":"Point"},"properties":{"id_projet":"ELEMENTAIRES (ann\u00e9e scolaire 2017\/2018)","libelle":"FERNAND LABORI (19) ELEM","adresse":"19 rue FERNAND LABORI","arr_libelle":"18\u00e8me Ardt","arr_insee":75118,"annee_scol":null,"type_etabl":null,"created_user":null,"created_date":null,"last_edited_user":null,"last_edited_date":null,"geo_point_2d":{"lon":2.342251148831808,"lat":48.89912761918278}}},{"type":"Feature","geometry":{"coordinates":[2.3528110983790658,48.89033035278711],"type":"Point"},"properties":{"id_projet":"3220","libelle":"MARCADET (29) MAT","adresse":"29 rue MARCADET","arr_libelle":"18\u00e8me Ardt","arr_insee":75118,"annee_scol":null,"type_etabl":null,"created_user":null,"created_date":null,"last_edited_user":null,"last_edited_date":null,"geo_point_2d":{"lon":2.3528110983790658,"lat":48.89033035278711}}},{"type":"Feature","geometry":{"coordinates":[2.3353798643528516,48.896781094060486],"type":"Point"},"properties":{"id_projet":"3260","libelle":"PAUL ABADIE (1) MAT","adresse":"1 rue PAUL ABADIE","arr_libelle":"18\u00e8me Ardt","arr_insee":75118,"annee_scol":null,"type_etabl":null,"created_user":null,"created_date":null,"last_edited_user":null,"last_edited_date":null,"geo_point_2d":{"lon":2.3353798643528516,"lat":48.896781094060486}}},{"type":"Feature","geometry":{"coordinates":[2.3630675984998417,48.889594795434014],"type":"Point"},"properties":{"id_projet":"3222","libelle":"AIME CESAIRE","adresse":"22 rue PAJOL","arr_libelle":"18\u00e8me Ardt","arr_insee":75118,"annee_scol":null,"type_etabl":null,"created_user":null,"created_date":null,"last_edited_user":null,"last_edited_date":null,"geo_point_2d":{"lon":2.3630675984998417,"lat":48.889594795434014}}},{"type":"Feature","geometry":{"coordinates":[2.342154627279558,48.88854677993696],"type":"Point"},"properties":{"id_projet":"3221","libelle":"MONT CENIS (26) ELEM","adresse":"26 RUE DU MONT CENIS","arr_libelle":"18\u00e8me Ardt","arr_insee":75118,"annee_scol":null,"type_etabl":null,"created_user":null,"created_date":null,"last_edited_user":null,"last_edited_date":null,"geo_point_2d":{"lon":2.342154627279558,"lat":48.88854677993696}}},{"type":"Feature","geometry":{"coordinates":[2.3315370793888412,48.895418519222936],"type":"Point"},"properties":{"id_projet":"4840","libelle":"VAUVENARGUES (52) MAT","adresse":"52 RUE VAUVENARGUES","arr_libelle":"18\u00e8me Ardt","arr_insee":75118,"annee_scol":null,"type_etabl":null,"created_user":null,"created_date":null,"last_edited_user":null,"last_edited_date":null,"geo_point_2d":{"lon":2.3315370793888412,"lat":48.895418519222936}}},{"type":"Feature","geometry":{"coordinates":[2.3408657496618233,48.883553826797744],"type":"Point"},"properties":{"id_projet":"4840","libelle":"ORSEL (56) MAT","adresse":"56 RUE D' ORSEL","arr_libelle":"18\u00e8me Ardt","arr_insee":75118,"annee_scol":null,"type_etabl":null,"created_user":null,"created_date":null,"last_edited_user":null,"last_edited_date":null,"geo_point_2d":{"lon":2.3408657496618233,"lat":48.883553826797744}}},{"type":"Feature","geometry":{"coordinates":[2.3345890385044714,48.892204778299806],"type":"Point"},"properties":{"id_projet":"4883","libelle":"VAUVENARGUES (4) MAT","adresse":"2 RUE VAUVENARGUES","arr_libelle":"18\u00e8me Ardt","arr_insee":75118,"annee_scol":null,"type_etabl":null,"created_user":null,"created_date":null,"last_edited_user":null,"last_edited_date":null,"geo_point_2d":{"lon":2.3345890385044714,"lat":48.892204778299806}}},{"type":"Feature","geometry":{"coordinates":[2.3576876625309735,48.89716088986233],"type":"Point"},"properties":{"id_projet":"ELEMENTAIRES (ann\u00e9e scolaire 2020\/2021)","libelle":"EVA KOTCHEVER (4) POLY","adresse":"4 RUE EVA KOTCHEVER","arr_libelle":"18\u00e8me Ardt","arr_insee":75118,"annee_scol":null,"type_etabl":null,"created_user":null,"created_date":null,"last_edited_user":null,"last_edited_date":null,"geo_point_2d":{"lon":2.3576876625309735,"lat":48.89716088986233}}},{"type":"Feature","geometry":{"coordinates":[2.3307267239274227,48.89154833355772],"type":"Point"},"properties":{"id_projet":"ELEMENTAIRES (ann\u00e9e scolaire 2019\/2020)","libelle":"JOSEPH DE MAISTRE (29) ELEM","adresse":"29 RUE JOSEPH DE MAISTRE","arr_libelle":"18\u00e8me Ardt","arr_insee":75118,"annee_scol":null,"type_etabl":null,"created_user":null,"created_date":null,"last_edited_user":null,"last_edited_date":null,"geo_point_2d":{"lon":2.3307267239274227,"lat":48.89154833355772}}},{"type":"Feature","geometry":{"coordinates":[2.3307267239389824,48.89154833265846],"type":"Point"},"properties":{"id_projet":"ELEMENTAIRES (ann\u00e9e scolaire 2020\/2021)","libelle":"JOSEPH DE MAISTRE (29) ELEM","adresse":"29 RUE JOSEPH DE MAISTRE","arr_libelle":"18\u00e8me Ardt","arr_insee":75118,"annee_scol":null,"type_etabl":null,"created_user":null,"created_date":null,"last_edited_user":null,"last_edited_date":null,"geo_point_2d":{"lon":2.3307267239389824,"lat":48.89154833265846}}},{"type":"Feature","geometry":{"coordinates":[2.3358105724238714,48.89077288473815],"type":"Point"},"properties":{"id_projet":"4883","libelle":"LAMARCK (4) MAT","adresse":"4 SQUARE LAMARCK","arr_libelle":"18\u00e8me Ardt","arr_insee":75118,"annee_scol":null,"type_etabl":null,"created_user":null,"created_date":null,"last_edited_user":null,"last_edited_date":null,"geo_point_2d":{"lon":2.3358105724238714,"lat":48.89077288473815}}},{"type":"Feature","geometry":{"coordinates":[2.3514285246115896,48.886354513529774],"type":"Point"},"properties":{"id_projet":"4883","libelle":"RICHOMME (18) MAT","adresse":"18 RUE RICHOMME","arr_libelle":"18\u00e8me Ardt","arr_insee":75118,"annee_scol":null,"type_etabl":null,"created_user":null,"created_date":null,"last_edited_user":null,"last_edited_date":null,"geo_point_2d":{"lon":2.3514285246115896,"lat":48.886354513529774}}},{"type":"Feature","geometry":{"coordinates":[2.337452792317367,48.8993899007631],"type":"Point"},"properties":{"id_projet":"ELEMENTAIRES (ann\u00e9e scolaire 2019\/2020)","libelle":"FRANCOISE DORLEAC ELEM B","adresse":"60 RUE RENE BINET","arr_libelle":"18\u00e8me Ardt","arr_insee":75118,"annee_scol":null,"type_etabl":null,"created_user":null,"created_date":null,"last_edited_user":null,"last_edited_date":null,"geo_point_2d":{"lon":2.337452792317367,"lat":48.8993899007631}}},{"type":"Feature","geometry":{"coordinates":[2.348739076928349,48.885951590940174],"type":"Point"},"properties":{"id_projet":"4840","libelle":"CHRISTIANI (8) MAT","adresse":"8 RUE CHRISTIANI","arr_libelle":"18\u00e8me Ardt","arr_insee":75118,"annee_scol":null,"type_etabl":null,"created_user":null,"created_date":null,"last_edited_user":null,"last_edited_date":null,"geo_point_2d":{"lon":2.348739076928349,"lat":48.885951590940174}}},{"type":"Feature","geometry":{"coordinates":[2.369872461060125,48.89991713437065],"type":"Point"},"properties":{"id_projet":"4890","libelle":"CHARLES HERMITE (2) MAT","adresse":"2 RUE CHARLES HERMITE","arr_libelle":"18\u00e8me Ardt","arr_insee":75118,"annee_scol":"2022-2023","type_etabl":"MAT","created_user":null,"created_date":null,"last_edited_user":null,"last_edited_date":null,"geo_point_2d":{"lon":2.369872461060125,"lat":48.89991713437065}}},{"type":"Feature","geometry":{"coordinates":[2.3345890385044714,48.892204778299806],"type":"Point"},"properties":{"id_projet":"4890","libelle":"VAUVENARGUES (4) MAT","adresse":"4 RUE VAUVENARGUES","arr_libelle":"18\u00e8me Ardt","arr_insee":75118,"annee_scol":"2022-2023","type_etabl":"MAT","created_user":null,"created_date":null,"last_edited_user":null,"last_edited_date":null,"geo_point_2d":{"lon":2.3345890385044714,"lat":48.892204778299806}}},{"type":"Feature","geometry":{"coordinates":[2.332815674978112,48.89581466967536],"type":"Point"},"properties":{"id_projet":"4893","libelle":"HECTOR BERLIOZ","adresse":"17 RUE GEORGETTE AGUTTE","arr_libelle":"18\u00e8me Ardt","arr_insee":75118,"annee_scol":"2022-2023","type_etabl":"COL","created_user":null,"created_date":null,"last_edited_user":null,"last_edited_date":null,"geo_point_2d":{"lon":2.332815674978112,"lat":48.89581466967536}}},{"type":"Feature","geometry":{"coordinates":[2.3456486054410246,48.89126196618973],"type":"Point"},"properties":{"id_projet":"4890","libelle":"FERDINAND FLOCON (3) MAT","adresse":"3 RUE FERDINAND FLOCON","arr_libelle":"18\u00e8me Ardt","arr_insee":75118,"annee_scol":"2022-2023","type_etabl":"MAT","created_user":null,"created_date":null,"last_edited_user":null,"last_edited_date":null,"geo_point_2d":{"lon":2.3456486054410246,"lat":48.89126196618973}}},{"type":"Feature","geometry":{"coordinates":[2.3576876625309735,48.89716088986233],"type":"Point"},"properties":{"id_projet":"4894","libelle":"EVA KOTCHEVER (4) POLY","adresse":"4 RUE EVA KOTCHEVER","arr_libelle":"18\u00e8me Ardt","arr_insee":75118,"annee_scol":"2023-2024","type_etabl":"Polyvalent","created_user":"LECOQH","created_date":"2023-03-16T16:02:36+01:00","last_edited_user":"DASCO","last_edited_date":"2023-03-22T13:20:03+01:00","geo_point_2d":{"lon":2.3576876625309735,"lat":48.89716088986233}}},{"type":"Feature","geometry":{"coordinates":[2.361872957417844,48.88647962509409],"type":"Point"},"properties":{"id_projet":"4894","libelle":"DEPARTEMENT (51) MAT","adresse":"51 RUE DU DEPARTEMENT","arr_libelle":"18\u00e8me Ardt","arr_insee":75118,"annee_scol":"2023-2024","type_etabl":"MAT","created_user":"LECOQH","created_date":"2023-03-16T16:02:36+01:00","last_edited_user":"LECOQH","last_edited_date":"2023-03-16T16:02:36+01:00","geo_point_2d":{"lon":2.361872957417844,"lat":48.88647962509409}}},{"type":"Feature","geometry":{"coordinates":[2.3640416412674057,48.8912764132004],"type":"Point"},"properties":{"id_projet":"4894","libelle":"TORCY (10-12) MAT","adresse":"10 RUE DE TORCY","arr_libelle":"18\u00e8me Ardt","arr_insee":75118,"annee_scol":"2023-2024","type_etabl":"MAT","created_user":"LECOQH","created_date":"2023-03-16T16:02:36+01:00","last_edited_user":"LECOQH","last_edited_date":"2023-03-16T16:02:36+01:00","geo_point_2d":{"lon":2.3640416412674057,"lat":48.8912764132004}}},{"type":"Feature","geometry":{"coordinates":[2.352811098401421,48.890330350988556],"type":"Point"},"properties":{"id_projet":"4894","libelle":"MARCADET (29) MAT","adresse":"29 RUE MARCADET","arr_libelle":"18\u00e8me Ardt","arr_insee":75118,"annee_scol":"2023-2024","type_etabl":"MAT","created_user":"LECOQH","created_date":"2023-03-16T16:02:36+01:00","last_edited_user":"LECOQH","last_edited_date":"2023-03-16T16:02:36+01:00","geo_point_2d":{"lon":2.352811098401421,"lat":48.890330350988556}}},{"type":"Feature","geometry":{"coordinates":[2.3530219082435435,48.896813673292016],"type":"Point"},"properties":{"id_projet":"ELEMENTAIRES (ann\u00e9e scolaire 2023\/2024)","libelle":"POISSONNIERS (142) POLY","adresse":"142 RUE DES POISSONNIERS","arr_libelle":"18\u00e8me Ardt","arr_insee":75118,"annee_scol":"2023-2024","type_etabl":"Polyvalent","created_user":"LECOQH","created_date":"2023-03-16T16:02:48+01:00","last_edited_user":"LECOQH","last_edited_date":"2023-03-16T16:02:48+01:00","geo_point_2d":{"lon":2.3530219082435435,"lat":48.896813673292016}}},{"type":"Feature","geometry":{"coordinates":[2.3606096722049075,48.88557045298243],"type":"Point"},"properties":{"id_projet":"ELEMENTAIRES (ann\u00e9e scolaire 2023\/2024)","libelle":"PAJOL (11) POLY","adresse":"11 RUE PAJOL","arr_libelle":"18\u00e8me Ardt","arr_insee":75118,"annee_scol":"2023-2024","type_etabl":"Polyvalent","created_user":"LECOQH","created_date":"2023-03-16T16:02:48+01:00","last_edited_user":"LECOQH","last_edited_date":"2023-03-16T16:02:48+01:00","geo_point_2d":{"lon":2.3606096722049075,"lat":48.88557045298243}}},{"type":"Feature","geometry":{"coordinates":[2.3527287013006752,48.889684350238106],"type":"Point"},"properties":{"id_projet":"ELEMENTAIRES (ann\u00e9e scolaire 2023\/2024)","libelle":"PIERRE BUDIN (5) ELEM","adresse":"5 RUE PIERRE BUDIN","arr_libelle":"18\u00e8me Ardt","arr_insee":75118,"annee_scol":"2023-2024","type_etabl":"El\u00e9mentaire","created_user":"LECOQH","created_date":"2023-03-16T16:02:48+01:00","last_edited_user":"LECOQH","last_edited_date":"2023-03-16T16:02:48+01:00","geo_point_2d":{"lon":2.3527287013006752,"lat":48.889684350238106}}},{"type":"Feature","geometry":{"coordinates":[2.339861547664252,48.89171570998115],"type":"Point"},"properties":{"id_projet":"1800","libelle":"RUISSEAU (6) MAT","adresse":"6 RUE DU RUISSEAU","arr_libelle":"18\u00e8me Ardt","arr_insee":75118,"annee_scol":null,"type_etabl":null,"created_user":null,"created_date":null,"last_edited_user":null,"last_edited_date":null,"geo_point_2d":{"lon":2.339861547664252,"lat":48.89171570998115}}},{"type":"Feature","geometry":{"coordinates":[2.3596962129112753,48.888379576074],"type":"Point"},"properties":{"id_projet":"1800","libelle":"MARX DORMOY (53B) MAT","adresse":"53 bis rue MARX DORMOY","arr_libelle":"18\u00e8me Ardt","arr_insee":75118,"annee_scol":null,"type_etabl":null,"created_user":null,"created_date":null,"last_edited_user":null,"last_edited_date":null,"geo_point_2d":{"lon":2.3596962129112753,"lat":48.888379576074}}},{"type":"Feature","geometry":{"coordinates":[2.3353586926649936,48.89237870015058],"type":"Point"},"properties":{"id_projet":"ELEMENTAIRES (ann\u00e9e scolaire 2018\/2019)","libelle":"DAMREMONT (67) ELEM A","adresse":"67 rue DAMREMONT","arr_libelle":"18\u00e8me Ardt","arr_insee":75118,"annee_scol":null,"type_etabl":null,"created_user":null,"created_date":null,"last_edited_user":null,"last_edited_date":null,"geo_point_2d":{"lon":2.3353586926649936,"lat":48.89237870015058}}},{"type":"Feature","geometry":{"coordinates":[2.3439649798789026,48.89207701187094],"type":"Point"},"properties":{"id_projet":"4840","libelle":"MONT CENIS (77) MAT","adresse":"77 RUE DU MONT CENIS","arr_libelle":"18\u00e8me Ardt","arr_insee":75118,"annee_scol":null,"type_etabl":null,"created_user":null,"created_date":null,"last_edited_user":null,"last_edited_date":null,"geo_point_2d":{"lon":2.3439649798789026,"lat":48.89207701187094}}},{"type":"Feature","geometry":{"coordinates":[2.3290873901975875,48.88573336564051],"type":"Point"},"properties":{"id_projet":"4840","libelle":"FOREST (14) POLY","adresse":"14 RUE FOREST","arr_libelle":"18\u00e8me Ardt","arr_insee":75118,"annee_scol":null,"type_etabl":null,"created_user":null,"created_date":null,"last_edited_user":null,"last_edited_date":null,"geo_point_2d":{"lon":2.3290873901975875,"lat":48.88573336564051}}},{"type":"Feature","geometry":{"coordinates":[2.361158272598431,48.88636492801034],"type":"Point"},"properties":{"id_projet":"ELEMENTAIRES (ann\u00e9e scolaire 2019\/2020)","libelle":"PHILIPPE DE GIRARD (58) ELEM","adresse":"58 RUE PHILIPPE DE GIRARD","arr_libelle":"18\u00e8me Ardt","arr_insee":75118,"annee_scol":null,"type_etabl":null,"created_user":null,"created_date":null,"last_edited_user":null,"last_edited_date":null,"geo_point_2d":{"lon":2.361158272598431,"lat":48.88636492801034}}},{"type":"Feature","geometry":{"coordinates":[2.3626320892963073,48.89075300833554],"type":"Point"},"properties":{"id_projet":"ELEMENTAIRES (ann\u00e9e scolaire 2018\/2019)","libelle":"GUADELOUPE (2) ELEM","adresse":"2 RUE DE LA GUADELOUPE","arr_libelle":"18\u00e8me Ardt","arr_insee":75118,"annee_scol":null,"type_etabl":null,"created_user":null,"created_date":null,"last_edited_user":null,"last_edited_date":null,"geo_point_2d":{"lon":2.3626320892963073,"lat":48.89075300833554}}},{"type":"Feature","geometry":{"coordinates":[2.3406539688642596,48.884024121017994],"type":"Point"},"properties":{"id_projet":"3482","libelle":"YVONNE LE TAC","adresse":"7 rue YVONNE LE TAC","arr_libelle":"18\u00e8me Ardt","arr_insee":75118,"annee_scol":null,"type_etabl":null,"created_user":null,"created_date":null,"last_edited_user":null,"last_edited_date":null,"geo_point_2d":{"lon":2.3406539688642596,"lat":48.884024121017994}}},{"type":"Feature","geometry":{"coordinates":[2.3316322202176862,48.89532110514831],"type":"Point"},"properties":{"id_projet":"ELEMENTAIRES (ann\u00e9e scolaire 2017\/2018)","libelle":"VAUVENARGUES (50) ELEM","adresse":"50 rue VAUVENARGUES","arr_libelle":"18\u00e8me Ardt","arr_insee":75118,"annee_scol":null,"type_etabl":null,"created_user":null,"created_date":null,"last_edited_user":null,"last_edited_date":null,"geo_point_2d":{"lon":2.3316322202176862,"lat":48.89532110514831}}},{"type":"Feature","geometry":{"coordinates":[2.3423908901765307,48.88466921009886],"type":"Point"},"properties":{"id_projet":"ELEMENTAIRES (ann\u00e9e scolaire 2017\/2018)","libelle":"FOYATIER (1) ELEM","adresse":"1 place SUZANNE VALADON","arr_libelle":"18\u00e8me Ardt","arr_insee":75118,"annee_scol":null,"type_etabl":null,"created_user":null,"created_date":null,"last_edited_user":null,"last_edited_date":null,"geo_point_2d":{"lon":2.3423908901765307,"lat":48.88466921009886}}},{"type":"Feature","geometry":{"coordinates":[2.3408657496504404,48.88355382769703],"type":"Point"},"properties":{"id_projet":"3260","libelle":"ORSEL (56) MAT","adresse":"56 RUE D' ORSEL","arr_libelle":"18\u00e8me Ardt","arr_insee":75118,"annee_scol":null,"type_etabl":null,"created_user":null,"created_date":null,"last_edited_user":null,"last_edited_date":null,"geo_point_2d":{"lon":2.3408657496504404,"lat":48.88355382769703}}},{"type":"Feature","geometry":{"coordinates":[2.3646713741686076,48.89110147804517],"type":"Point"},"properties":{"id_projet":"3220","libelle":"TORCY (7) MAT","adresse":"7 RUE DE TORCY","arr_libelle":"18\u00e8me Ardt","arr_insee":75118,"annee_scol":null,"type_etabl":null,"created_user":null,"created_date":null,"last_edited_user":null,"last_edited_date":null,"geo_point_2d":{"lon":2.3646713741686076,"lat":48.89110147804517}}},{"type":"Feature","geometry":{"coordinates":[2.3551404241180247,48.8899002411621],"type":"Point"},"properties":{"id_projet":"3260","libelle":"EMILE DUPLOYE (27) MAT","adresse":"27 rue EMILE DUPLOYE","arr_libelle":"18\u00e8me Ardt","arr_insee":75118,"annee_scol":null,"type_etabl":null,"created_user":null,"created_date":null,"last_edited_user":null,"last_edited_date":null,"geo_point_2d":{"lon":2.3551404241180247,"lat":48.8899002411621}}},{"type":"Feature","geometry":{"coordinates":[2.3520789672173734,48.89512914028205],"type":"Point"},"properties":{"id_projet":"3221","libelle":"CHAMPIONNET (7) ELEM","adresse":"7 rue CHAMPIONNET","arr_libelle":"18\u00e8me Ardt","arr_insee":75118,"annee_scol":null,"type_etabl":null,"created_user":null,"created_date":null,"last_edited_user":null,"last_edited_date":null,"geo_point_2d":{"lon":2.3520789672173734,"lat":48.89512914028205}}},{"type":"Feature","geometry":{"coordinates":[2.3551404241180247,48.8899002411621],"type":"Point"},"properties":{"id_projet":"ELEMENTAIRES (ann\u00e9e scolaire 2017\/2018)","libelle":"EMILE DUPLOYE (27) MAT","adresse":"27 rue EMILE DUPLOYE","arr_libelle":"18\u00e8me Ardt","arr_insee":75118,"annee_scol":null,"type_etabl":null,"created_user":null,"created_date":null,"last_edited_user":null,"last_edited_date":null,"geo_point_2d":{"lon":2.3551404241180247,"lat":48.8899002411621}}},{"type":"Feature","geometry":{"coordinates":[2.331537079377295,48.895418520122206],"type":"Point"},"properties":{"id_projet":"3220","libelle":"VAUVENARGUES (52) MAT","adresse":"52 rue VAUVENARGUES","arr_libelle":"18\u00e8me Ardt","arr_insee":75118,"annee_scol":null,"type_etabl":null,"created_user":null,"created_date":null,"last_edited_user":null,"last_edited_date":null,"geo_point_2d":{"lon":2.331537079377295,"lat":48.895418520122206}}},{"type":"Feature","geometry":{"coordinates":[2.3606096721717824,48.88557045568025],"type":"Point"},"properties":{"id_projet":"3221","libelle":"PAJOL (11) POLY","adresse":"11 bis rue PAJOL","arr_libelle":"18\u00e8me Ardt","arr_insee":75118,"annee_scol":null,"type_etabl":null,"created_user":null,"created_date":null,"last_edited_user":null,"last_edited_date":null,"geo_point_2d":{"lon":2.3606096721717824,"lat":48.88557045568025}}},{"type":"Feature","geometry":{"coordinates":[2.361872957395804,48.88647962689264],"type":"Point"},"properties":{"id_projet":"4840","libelle":"DEPARTEMENT (51) MAT","adresse":"51 RUE DU DEPARTEMENT","arr_libelle":"18\u00e8me Ardt","arr_insee":75118,"annee_scol":null,"type_etabl":null,"created_user":null,"created_date":null,"last_edited_user":null,"last_edited_date":null,"geo_point_2d":{"lon":2.361872957395804,"lat":48.88647962689264}}},{"type":"Feature","geometry":{"coordinates":[2.3640416412564225,48.89127641409966],"type":"Point"},"properties":{"id_projet":"4840","libelle":"TORCY (10-12) MAT","adresse":"12 RUE DE TORCY","arr_libelle":"18\u00e8me Ardt","arr_insee":75118,"annee_scol":null,"type_etabl":null,"created_user":null,"created_date":null,"last_edited_user":null,"last_edited_date":null,"geo_point_2d":{"lon":2.3640416412564225,"lat":48.89127641409966}}},{"type":"Feature","geometry":{"coordinates":[2.3456486054410246,48.89126196618973],"type":"Point"},"properties":{"id_projet":"4883","libelle":"FERDINAND FLOCON (3) MAT","adresse":"3 RUE FERDINAND FLOCON","arr_libelle":"18\u00e8me Ardt","arr_insee":75118,"annee_scol":null,"type_etabl":null,"created_user":null,"created_date":null,"last_edited_user":null,"last_edited_date":null,"geo_point_2d":{"lon":2.3456486054410246,"lat":48.89126196618973}}},{"type":"Feature","geometry":{"coordinates":[2.339143362226737,48.895588312904216],"type":"Point"},"properties":{"id_projet":"4883","libelle":"CHAMPIONNET (113) POLY","adresse":"113 RUE CHAMPIONNET","arr_libelle":"18\u00e8me Ardt","arr_insee":75118,"annee_scol":null,"type_etabl":null,"created_user":null,"created_date":null,"last_edited_user":null,"last_edited_date":null,"geo_point_2d":{"lon":2.339143362226737,"lat":48.895588312904216}}},{"type":"Feature","geometry":{"coordinates":[2.3514565316595917,48.89357315361589],"type":"Point"},"properties":{"id_projet":"ELEMENTAIRES (ann\u00e9e scolaire 2019\/2020)","libelle":"SIMPLON (14) POLY","adresse":"14 RUE DU SIMPLON","arr_libelle":"18\u00e8me Ardt","arr_insee":75118,"annee_scol":null,"type_etabl":null,"created_user":null,"created_date":null,"last_edited_user":null,"last_edited_date":null,"geo_point_2d":{"lon":2.3514565316595917,"lat":48.89357315361589}}},{"type":"Feature","geometry":{"coordinates":[2.3290873901975875,48.88573336564051],"type":"Point"},"properties":{"id_projet":"ELEMENTAIRES (ann\u00e9e scolaire 2019\/2020)","libelle":"FOREST (14) POLY","adresse":"14 RUE FOREST","arr_libelle":"18\u00e8me Ardt","arr_insee":75118,"annee_scol":null,"type_etabl":null,"created_user":null,"created_date":null,"last_edited_user":null,"last_edited_date":null,"geo_point_2d":{"lon":2.3290873901975875,"lat":48.88573336564051}}},{"type":"Feature","geometry":{"coordinates":[2.337452792317367,48.8993899007631],"type":"Point"},"properties":{"id_projet":"ELEMENTAIRES (ann\u00e9e scolaire 2020\/2021)","libelle":"FRANCOISE DORLEAC ELEM B","adresse":"60 RUE RENE BINET","arr_libelle":"18\u00e8me Ardt","arr_insee":75118,"annee_scol":null,"type_etabl":null,"created_user":null,"created_date":null,"last_edited_user":null,"last_edited_date":null,"geo_point_2d":{"lon":2.337452792317367,"lat":48.8993899007631}}},{"type":"Feature","geometry":{"coordinates":[2.364554543133914,48.89418329402723],"type":"Point"},"properties":{"id_projet":"4883","libelle":"TCHAIKOVSKI (7) MAT","adresse":"7 RUE TCHAIKOVSKI","arr_libelle":"18\u00e8me Ardt","arr_insee":75118,"annee_scol":null,"type_etabl":null,"created_user":null,"created_date":null,"last_edited_user":null,"last_edited_date":null,"geo_point_2d":{"lon":2.364554543133914,"lat":48.89418329402723}}},{"type":"Feature","geometry":{"coordinates":[2.3423908901878874,48.884669209199586],"type":"Point"},"properties":{"id_projet":"ELEMENTAIRES (ann\u00e9e scolaire 2021\/2022)","libelle":"FOYATIER (1) ELEM","adresse":"1 RUE FOYATIER","arr_libelle":"18\u00e8me Ardt","arr_insee":75118,"annee_scol":"2021-2022","type_etabl":"El\u00e9mentaire","created_user":null,"created_date":null,"last_edited_user":null,"last_edited_date":null,"geo_point_2d":{"lon":2.3423908901878874,"lat":48.884669209199586}}},{"type":"Feature","geometry":{"coordinates":[2.337452792317367,48.8993899007631],"type":"Point"},"properties":{"id_projet":"ELEMENTAIRES (ann\u00e9e scolaire 2021\/2022)","libelle":"FRANCOISE DORLEAC  ELEM A","adresse":"8 PLACE FRANCOISE DORLEAC","arr_libelle":"18\u00e8me Ardt","arr_insee":75118,"annee_scol":"2021-2022","type_etabl":"El\u00e9mentaire","created_user":null,"created_date":null,"last_edited_user":null,"last_edited_date":null,"geo_point_2d":{"lon":2.337452792317367,"lat":48.8993899007631}}},{"type":"Feature","geometry":{"coordinates":[2.3530219082435435,48.896813673292016],"type":"Point"},"properties":{"id_projet":"ELEMENTAIRES (ann\u00e9e scolaire 2021\/2022)","libelle":"POISSONNIERS (142) POLY","adresse":"142 RUE DES POISSONNIERS","arr_libelle":"18\u00e8me Ardt","arr_insee":75118,"annee_scol":"2021-2022","type_etabl":"Polyvalent","created_user":null,"created_date":null,"last_edited_user":null,"last_edited_date":null,"geo_point_2d":{"lon":2.3530219082435435,"lat":48.896813673292016}}},{"type":"Feature","geometry":{"coordinates":[2.3651224005960807,48.89406873070228],"type":"Point"},"properties":{"id_projet":"ELEMENTAIRES (ann\u00e9e scolaire 2021\/2022)","libelle":"EVANGILE (33) ELEM","adresse":"33 RUE DE L'EVANGILE","arr_libelle":"18\u00e8me Ardt","arr_insee":75118,"annee_scol":"2021-2022","type_etabl":"El\u00e9mentaire","created_user":null,"created_date":null,"last_edited_user":null,"last_edited_date":null,"geo_point_2d":{"lon":2.3651224005960807,"lat":48.89406873070228}}},{"type":"Feature","geometry":{"coordinates":[2.355140425492895,48.889900240270194],"type":"Point"},"properties":{"id_projet":"4890","libelle":"EMILE DUPLOYE (27) MAT","adresse":"27 RUE EMILE DUPLOYE","arr_libelle":"18\u00e8me Ardt","arr_insee":75118,"annee_scol":"2022-2023","type_etabl":"MAT","created_user":null,"created_date":null,"last_edited_user":null,"last_edited_date":null,"geo_point_2d":{"lon":2.355140425492895,"lat":48.889900240270194}}},{"type":"Feature","geometry":{"coordinates":[2.3382587769550267,48.892933147554274],"type":"Point"},"properties":{"id_projet":"4890","libelle":"CLOYS (41) MAT","adresse":"33 RUE DES CLOYS","arr_libelle":"18\u00e8me Ardt","arr_insee":75118,"annee_scol":"2022-2023","type_etabl":"MAT","created_user":null,"created_date":null,"last_edited_user":null,"last_edited_date":null,"geo_point_2d":{"lon":2.3382587769550267,"lat":48.892933147554274}}},{"type":"Feature","geometry":{"coordinates":[2.3353798643758124,48.89678109226198],"type":"Point"},"properties":{"id_projet":"4894","libelle":"PAUL ABADIE (1) MAT","adresse":"1 RUE PAUL ABADIE","arr_libelle":"18\u00e8me Ardt","arr_insee":75118,"annee_scol":"2023-2024","type_etabl":"MAT","created_user":"LECOQH","created_date":"2023-03-16T16:02:36+01:00","last_edited_user":"LECOQH","last_edited_date":"2023-03-16T16:02:36+01:00","geo_point_2d":{"lon":2.3353798643758124,"lat":48.89678109226198}}},{"type":"Feature","geometry":{"coordinates":[2.3398615476756537,48.891715709081886],"type":"Point"},"properties":{"id_projet":"4894","libelle":"RUISSEAU (6) MAT","adresse":"6 RUE DU RUISSEAU","arr_libelle":"18\u00e8me Ardt","arr_insee":75118,"annee_scol":"2023-2024","type_etabl":"MAT","created_user":"LECOQH","created_date":"2023-03-16T16:02:36+01:00","last_edited_user":"LECOQH","last_edited_date":"2023-03-16T16:02:36+01:00","geo_point_2d":{"lon":2.3398615476756537,"lat":48.891715709081886}}},{"type":"Feature","geometry":{"coordinates":[2.3403163219867738,48.896314757756535],"type":"Point"},"properties":{"id_projet":"ELEMENTAIRES (ann\u00e9e scolaire 2023\/2024)","libelle":"GUSTAVE ROUANET (7) ELEM","adresse":"7 RUE GUSTAVE ROUANET","arr_libelle":"18\u00e8me Ardt","arr_insee":75118,"annee_scol":"2023-2024","type_etabl":"El\u00e9mentaire","created_user":"LECOQH","created_date":"2023-03-16T16:02:48+01:00","last_edited_user":"LECOQH","last_edited_date":"2023-03-16T16:02:48+01:00","geo_point_2d":{"lon":2.3403163219867738,"lat":48.896314757756535}}},{"type":"Feature","geometry":{"coordinates":[2.3515397719869475,48.88906745779489],"type":"Point"},"properties":{"id_projet":"4900","libelle":"GEORGES CLEMENCEAU","adresse":"43 RUE DES POISSONNIERS","arr_libelle":"18\u00e8me Ardt","arr_insee":75118,"annee_scol":"2023-2024","type_etabl":"COL","created_user":"LECOQH","created_date":"2023-03-16T16:02:54+01:00","last_edited_user":"LECOQH","last_edited_date":"2023-03-16T16:02:54+01:00","geo_point_2d":{"lon":2.3515397719869475,"lat":48.88906745779489}}},{"type":"Feature","geometry":{"coordinates":[2.3514565316595917,48.89357315361589],"type":"Point"},"properties":{"id_projet":"ELEMENTAIRES (ann\u00e9e scolaire 2018\/2019)","libelle":"SIMPLON (14) POLY","adresse":"14 RUE DU SIMPLON","arr_libelle":"18\u00e8me Ardt","arr_insee":75118,"annee_scol":null,"type_etabl":null,"created_user":null,"created_date":null,"last_edited_user":null,"last_edited_date":null,"geo_point_2d":{"lon":2.3514565316595917,"lat":48.89357315361589}}},{"type":"Feature","geometry":{"coordinates":[2.3604653249739895,48.89445526934687],"type":"Point"},"properties":{"id_projet":"4840","libelle":"MAURICE GENEVOIX (3) POLY","adresse":"3 RUE MAURICE GENEVOIX","arr_libelle":"18\u00e8me Ardt","arr_insee":75118,"annee_scol":null,"type_etabl":null,"created_user":null,"created_date":null,"last_edited_user":null,"last_edited_date":null,"geo_point_2d":{"lon":2.3604653249739895,"lat":48.89445526934687}}},{"type":"Feature","geometry":{"coordinates":[2.342154627290919,48.88854677903774],"type":"Point"},"properties":{"id_projet":"ELEMENTAIRES (ann\u00e9e scolaire 2019\/2020)","libelle":"MONT CENIS (26) ELEM","adresse":"26 RUE DU MONT CENIS","arr_libelle":"18\u00e8me Ardt","arr_insee":75118,"annee_scol":null,"type_etabl":null,"created_user":null,"created_date":null,"last_edited_user":null,"last_edited_date":null,"geo_point_2d":{"lon":2.342154627290919,"lat":48.88854677903774}}},{"type":"Feature","geometry":{"coordinates":[2.3520789672285645,48.89512913938277],"type":"Point"},"properties":{"id_projet":"ELEMENTAIRES (ann\u00e9e scolaire 2019\/2020)","libelle":"CHAMPIONNET (7) ELEM","adresse":"7 RUE CHAMPIONNET","arr_libelle":"18\u00e8me Ardt","arr_insee":75118,"annee_scol":null,"type_etabl":null,"created_user":null,"created_date":null,"last_edited_user":null,"last_edited_date":null,"geo_point_2d":{"lon":2.3520789672285645,"lat":48.89512913938277}}},{"type":"Feature","geometry":{"coordinates":[2.3541786363810395,48.88563541994895],"type":"Point"},"properties":{"id_projet":"1800","libelle":"ST LUC (3) MAT","adresse":"3 rue SAINT-LUC","arr_libelle":"18\u00e8me Ardt","arr_insee":75118,"annee_scol":null,"type_etabl":null,"created_user":null,"created_date":null,"last_edited_user":null,"last_edited_date":null,"geo_point_2d":{"lon":2.3541786363810395,"lat":48.88563541994895}}},{"type":"Feature","geometry":{"coordinates":[2.358735952273971,48.8888720478283],"type":"Point"},"properties":{"id_projet":"ELEMENTAIRES (ann\u00e9e scolaire 2018\/2019)","libelle":"DOUDEAUVILLE (7) ELEM","adresse":"7 rue DOUDEAUVILLE","arr_libelle":"18\u00e8me Ardt","arr_insee":75118,"annee_scol":null,"type_etabl":null,"created_user":null,"created_date":null,"last_edited_user":null,"last_edited_date":null,"geo_point_2d":{"lon":2.358735952273971,"lat":48.8888720478283}}},{"type":"Feature","geometry":{"coordinates":[2.335058903953991,48.89195637174007],"type":"Point"},"properties":{"id_projet":"ELEMENTAIRES (ann\u00e9e scolaire 2017\/2018)","libelle":"DAMREMONT (65) ELEM B","adresse":"65 rue DAMREMONT","arr_libelle":"18\u00e8me Ardt","arr_insee":75118,"annee_scol":null,"type_etabl":null,"created_user":null,"created_date":null,"last_edited_user":null,"last_edited_date":null,"geo_point_2d":{"lon":2.335058903953991,"lat":48.89195637174007}}},{"type":"Feature","geometry":{"coordinates":[2.351945405231184,48.894458829739456],"type":"Point"},"properties":{"id_projet":"3482","libelle":"GERARD PHILIPE","adresse":"8 RUE DES AMIRAUX","arr_libelle":"18\u00e8me Ardt","arr_insee":75118,"annee_scol":null,"type_etabl":null,"created_user":null,"created_date":null,"last_edited_user":null,"last_edited_date":null,"geo_point_2d":{"lon":2.351945405231184,"lat":48.894458829739456}}},{"type":"Feature","geometry":{"coordinates":[2.332815674955064,48.89581467147387],"type":"Point"},"properties":{"id_projet":"3482","libelle":"HECTOR BERLIOZ","adresse":"17 rue GEORGETTE AGUTTE","arr_libelle":"18\u00e8me Ardt","arr_insee":75118,"annee_scol":null,"type_etabl":null,"created_user":null,"created_date":null,"last_edited_user":null,"last_edited_date":null,"geo_point_2d":{"lon":2.332815674955064,"lat":48.89581467147387}}},{"type":"Feature","geometry":{"coordinates":[2.3372287185984466,48.89998158903113],"type":"Point"},"properties":{"id_projet":"3220","libelle":"FRANCOISE DORLEAC (2) MAT","adresse":"2 place FRANCOISE DORLEAC","arr_libelle":"18\u00e8me Ardt","arr_insee":75118,"annee_scol":null,"type_etabl":null,"created_user":null,"created_date":null,"last_edited_user":null,"last_edited_date":null,"geo_point_2d":{"lon":2.3372287185984466,"lat":48.89998158903113}}},{"type":"Feature","geometry":{"coordinates":[2.3626320892853,48.89075300923478],"type":"Point"},"properties":{"id_projet":"ELEMENTAIRES (ann\u00e9e scolaire 2017\/2018)","libelle":"GUADELOUPE (2) ELEM","adresse":"2 RUE DE LA GUADELOUPE","arr_libelle":"18\u00e8me Ardt","arr_insee":75118,"annee_scol":null,"type_etabl":null,"created_user":null,"created_date":null,"last_edited_user":null,"last_edited_date":null,"geo_point_2d":{"lon":2.3626320892853,"lat":48.89075300923478}}},{"type":"Feature","geometry":{"coordinates":[2.3384523341490038,48.88322840311429],"type":"Point"},"properties":{"id_projet":"3221","libelle":"HOUDON (15) ELEM","adresse":"15 rue HOUDON","arr_libelle":"18\u00e8me Ardt","arr_insee":75118,"annee_scol":null,"type_etabl":null,"created_user":null,"created_date":null,"last_edited_user":null,"last_edited_date":null,"geo_point_2d":{"lon":2.3384523341490038,"lat":48.88322840311429}}},{"type":"Feature","geometry":{"coordinates":[2.351785340678661,48.884956337590936],"type":"Point"},"properties":{"id_projet":"3221","libelle":"GOUTTE D'OR (49B)  POLY","adresse":"49 bis RUE DE LA GOUTTE D'OR","arr_libelle":"18\u00e8me Ardt","arr_insee":75118,"annee_scol":null,"type_etabl":null,"created_user":null,"created_date":null,"last_edited_user":null,"last_edited_date":null,"geo_point_2d":{"lon":2.351785340678661,"lat":48.884956337590936}}},{"type":"Feature","geometry":{"coordinates":[2.3290873901975875,48.88573336564051],"type":"Point"},"properties":{"id_projet":"ELEMENTAIRES (ann\u00e9e scolaire 2017\/2018)","libelle":"FOREST (14) POLY","adresse":"14 rue FOREST","arr_libelle":"18\u00e8me Ardt","arr_insee":75118,"annee_scol":null,"type_etabl":null,"created_user":null,"created_date":null,"last_edited_user":null,"last_edited_date":null,"geo_point_2d":{"lon":2.3290873901975875,"lat":48.88573336564051}}},{"type":"Feature","geometry":{"coordinates":[2.3477978551609517,48.88793298988647],"type":"Point"},"properties":{"id_projet":"ELEMENTAIRES (ann\u00e9e scolaire 2017\/2018)","libelle":"CLIGNANCOURT (61) ELEM","adresse":"61 RUE DE CLIGNANCOURT","arr_libelle":"18\u00e8me Ardt","arr_insee":75118,"annee_scol":null,"type_etabl":null,"created_user":null,"created_date":null,"last_edited_user":null,"last_edited_date":null,"geo_point_2d":{"lon":2.3477978551609517,"lat":48.88793298988647}}},{"type":"Feature","geometry":{"coordinates":[2.3606096721717824,48.88557045568025],"type":"Point"},"properties":{"id_projet":"3220","libelle":"PAJOL (11) POLY","adresse":"11 bis rue PAJOL","arr_libelle":"18\u00e8me Ardt","arr_insee":75118,"annee_scol":null,"type_etabl":null,"created_user":null,"created_date":null,"last_edited_user":null,"last_edited_date":null,"geo_point_2d":{"lon":2.3606096721717824,"lat":48.88557045568025}}},{"type":"Feature","geometry":{"coordinates":[2.3551670232899253,48.886707351431824],"type":"Point"},"properties":{"id_projet":"3221","libelle":"CAVE (11) ELEM","adresse":"11 rue CAVE","arr_libelle":"18\u00e8me Ardt","arr_insee":75118,"annee_scol":null,"type_etabl":null,"created_user":null,"created_date":null,"last_edited_user":null,"last_edited_date":null,"geo_point_2d":{"lon":2.3551670232899253,"lat":48.886707351431824}}},{"type":"Feature","geometry":{"coordinates":[2.3445130809929275,48.89130095300317],"type":"Point"},"properties":{"id_projet":"ELEMENTAIRES (ann\u00e9e scolaire 2020\/2021)","libelle":"HERMEL (20) ELEM","adresse":"20 RUE HERMEL","arr_libelle":"18\u00e8me Ardt","arr_insee":75118,"annee_scol":null,"type_etabl":null,"created_user":null,"created_date":null,"last_edited_user":null,"last_edited_date":null,"geo_point_2d":{"lon":2.3445130809929275,"lat":48.89130095300317}}},{"type":"Feature","geometry":{"coordinates":[2.3406539688642596,48.884024121017994],"type":"Point"},"properties":{"id_projet":"4882","libelle":"YVONNE LE TAC","adresse":"7 rue YVONNE LE TAC","arr_libelle":"18\u00e8me Ardt","arr_insee":75118,"annee_scol":null,"type_etabl":null,"created_user":null,"created_date":null,"last_edited_user":null,"last_edited_date":null,"geo_point_2d":{"lon":2.3406539688642596,"lat":48.884024121017994}}},{"type":"Feature","geometry":{"coordinates":[2.3447564327292643,48.89820810689648],"type":"Point"},"properties":{"id_projet":"4885","libelle":"MAURICE UTRILLO","adresse":"100 BOULEVARD NEY","arr_libelle":"18\u00e8me Ardt","arr_insee":75118,"annee_scol":"2020-2021","type_etabl":"COL","created_user":null,"created_date":null,"last_edited_user":null,"last_edited_date":null,"geo_point_2d":{"lon":2.3447564327292643,"lat":48.89820810689648}}},{"type":"Feature","geometry":{"coordinates":[2.337452792317367,48.8993899007631],"type":"Point"},"properties":{"id_projet":"4883","libelle":"FRANCOISE DORLEAC (2) MAT","adresse":"60 RUE RENE BINET","arr_libelle":"18\u00e8me Ardt","arr_insee":75118,"annee_scol":null,"type_etabl":null,"created_user":null,"created_date":null,"last_edited_user":null,"last_edited_date":null,"geo_point_2d":{"lon":2.337452792317367,"lat":48.8993899007631}}},{"type":"Feature","geometry":{"coordinates":[2.3596962129112753,48.888379576074],"type":"Point"},"properties":{"id_projet":"4840","libelle":"MARX DORMOY (53B) MAT","adresse":"53 bis RUE MARX DORMOY","arr_libelle":"18\u00e8me Ardt","arr_insee":75118,"annee_scol":null,"type_etabl":null,"created_user":null,"created_date":null,"last_edited_user":null,"last_edited_date":null,"geo_point_2d":{"lon":2.3596962129112753,"lat":48.888379576074}}},{"type":"Feature","geometry":{"coordinates":[2.330324707554502,48.89328502795117],"type":"Point"},"properties":{"id_projet":"4886","libelle":"JOSEPH DE MAISTRE (94) MAT","adresse":"94 RUE JOSEPH DE MAISTRE","arr_libelle":"18\u00e8me Ardt","arr_insee":75118,"annee_scol":"2021-2022","type_etabl":"MAT","created_user":null,"created_date":null,"last_edited_user":null,"last_edited_date":null,"geo_point_2d":{"lon":2.330324707554502,"lat":48.89328502795117}}},{"type":"Feature","geometry":{"coordinates":[2.3298061120526445,48.89035961315118],"type":"Point"},"properties":{"id_projet":"4886","libelle":"CARPEAUX (5-7) MAT","adresse":"5 RUE CARPEAUX","arr_libelle":"18\u00e8me Ardt","arr_insee":75118,"annee_scol":"2021-2022","type_etabl":"MAT","created_user":null,"created_date":null,"last_edited_user":null,"last_edited_date":null,"geo_point_2d":{"lon":2.3298061120526445,"lat":48.89035961315118}}},{"type":"Feature","geometry":{"coordinates":[2.369872461060125,48.89991713437065],"type":"Point"},"properties":{"id_projet":"4886","libelle":"CHARLES HERMITE (2) MAT","adresse":"2 RUE CHARLES HERMITE","arr_libelle":"18\u00e8me Ardt","arr_insee":75118,"annee_scol":"2021-2022","type_etabl":"MAT","created_user":null,"created_date":null,"last_edited_user":null,"last_edited_date":null,"geo_point_2d":{"lon":2.369872461060125,"lat":48.89991713437065}}},{"type":"Feature","geometry":{"coordinates":[2.3353586926764733,48.89237869925132],"type":"Point"},"properties":{"id_projet":"ELEMENTAIRES (ann\u00e9e scolaire 2021\/2022)","libelle":"DAMREMONT (67) ELEM A","adresse":"67 RUE DAMREMONT","arr_libelle":"18\u00e8me Ardt","arr_insee":75118,"annee_scol":"2021-2022","type_etabl":"El\u00e9mentaire","created_user":null,"created_date":null,"last_edited_user":null,"last_edited_date":null,"geo_point_2d":{"lon":2.3353586926764733,"lat":48.89237869925132}}},{"type":"Feature","geometry":{"coordinates":[2.3451482912275083,48.89575027758258],"type":"Point"},"properties":{"id_projet":"ELEMENTAIRES (ann\u00e9e scolaire 2022\/2023)","libelle":"CHAMPIONNET (69) ELEM","adresse":"69 RUE CHAMPIONNET","arr_libelle":"18\u00e8me Ardt","arr_insee":75118,"annee_scol":"2022-2023","type_etabl":"El\u00e9mentaire","created_user":null,"created_date":null,"last_edited_user":null,"last_edited_date":null,"geo_point_2d":{"lon":2.3451482912275083,"lat":48.89575027758258}}},{"type":"Feature","geometry":{"coordinates":[2.352811098401421,48.890330350988556],"type":"Point"},"properties":{"id_projet":"4890","libelle":"MARCADET (29) MAT","adresse":"29 RUE MARCADET","arr_libelle":"18\u00e8me Ardt","arr_insee":75118,"annee_scol":"2022-2023","type_etabl":"MAT","created_user":null,"created_date":null,"last_edited_user":null,"last_edited_date":null,"geo_point_2d":{"lon":2.352811098401421,"lat":48.890330350988556}}},{"type":"Feature","geometry":{"coordinates":[2.337452792317367,48.8993899007631],"type":"Point"},"properties":{"id_projet":"ELEMENTAIRES (ann\u00e9e scolaire 2022\/2023)","libelle":"FRANCOISE DORLEAC  ELEM A","adresse":"8 PLACE FRANCOISE DORLEAC","arr_libelle":"18\u00e8me Ardt","arr_insee":75118,"annee_scol":"2022-2023","type_etabl":"El\u00e9mentaire","created_user":null,"created_date":null,"last_edited_user":null,"last_edited_date":null,"geo_point_2d":{"lon":2.337452792317367,"lat":48.8993899007631}}},{"type":"Feature","geometry":{"coordinates":[2.3298201952433653,48.89161762679698],"type":"Point"},"properties":{"id_projet":"4893","libelle":"ANTOINE COYSEVOX","adresse":"16 RUE COYSEVOX","arr_libelle":"18\u00e8me Ardt","arr_insee":75118,"annee_scol":"2022-2023","type_etabl":"COL","created_user":null,"created_date":null,"last_edited_user":null,"last_edited_date":null,"geo_point_2d":{"lon":2.3298201952433653,"lat":48.89161762679698}}},{"type":"Feature","geometry":{"coordinates":[2.3398615476756537,48.891715709081886],"type":"Point"},"properties":{"id_projet":"4890","libelle":"RUISSEAU (6) MAT","adresse":"6 RUE DU RUISSEAU","arr_libelle":"18\u00e8me Ardt","arr_insee":75118,"annee_scol":"2022-2023","type_etabl":"MAT","created_user":null,"created_date":null,"last_edited_user":null,"last_edited_date":null,"geo_point_2d":{"lon":2.3398615476756537,"lat":48.891715709081886}}},{"type":"Feature","geometry":{"coordinates":[2.3686660481548145,48.89989353303013],"type":"Point"},"properties":{"id_projet":"ELEMENTAIRES (ann\u00e9e scolaire 2022\/2023)","libelle":"CHARLES HERMITE (4) ELEM","adresse":"4 RUE CHARLES HERMITE","arr_libelle":"18\u00e8me Ardt","arr_insee":75118,"annee_scol":"2022-2023","type_etabl":"El\u00e9mentaire","created_user":null,"created_date":null,"last_edited_user":null,"last_edited_date":null,"geo_point_2d":{"lon":2.3686660481548145,"lat":48.89989353303013}}},{"type":"Feature","geometry":{"coordinates":[2.3645871569749612,48.892715722912946],"type":"Point"},"properties":{"id_projet":"4894","libelle":"CUGNOT (30) POLY","adresse":"30 RUE CUGNOT","arr_libelle":"18\u00e8me Ardt","arr_insee":75118,"annee_scol":"2023-2024","type_etabl":"Polyvalent","created_user":"LECOQH","created_date":"2023-03-16T16:02:36+01:00","last_edited_user":"DASCO","last_edited_date":"2023-03-22T13:20:04+01:00","geo_point_2d":{"lon":2.3645871569749612,"lat":48.892715722912946}}},{"type":"Feature","geometry":{"coordinates":[2.362632090671074,48.890753007443514],"type":"Point"},"properties":{"id_projet":"ELEMENTAIRES (ann\u00e9e scolaire 2023\/2024)","libelle":"GUADELOUPE (2) ELEM","adresse":"2 RUE DE LA GUADELOUPE","arr_libelle":"18\u00e8me Ardt","arr_insee":75118,"annee_scol":"2023-2024","type_etabl":"El\u00e9mentaire","created_user":"LECOQH","created_date":"2023-03-16T16:02:48+01:00","last_edited_user":"LECOQH","last_edited_date":"2023-03-16T16:02:48+01:00","geo_point_2d":{"lon":2.362632090671074,"lat":48.890753007443514}}},{"type":"Feature","geometry":{"coordinates":[2.3587359522961213,48.888872046029746],"type":"Point"},"properties":{"id_projet":"ELEMENTAIRES (ann\u00e9e scolaire 2023\/2024)","libelle":"DOUDEAUVILLE (7) ELEM","adresse":"7 RUE DOUDEAUVILLE","arr_libelle":"18\u00e8me Ardt","arr_insee":75118,"annee_scol":"2023-2024","type_etabl":"El\u00e9mentaire","created_user":"LECOQH","created_date":"2023-03-16T16:02:48+01:00","last_edited_user":"LECOQH","last_edited_date":"2023-03-16T16:02:48+01:00","geo_point_2d":{"lon":2.3587359522961213,"lat":48.888872046029746}}},{"type":"Feature","geometry":{"coordinates":[2.3298201952433653,48.89161762679698],"type":"Point"},"properties":{"id_projet":"4900","libelle":"ANTOINE COYSEVOX","adresse":"16 RUE COYSEVOX","arr_libelle":"18\u00e8me Ardt","arr_insee":75118,"annee_scol":"2023-2024","type_etabl":"COL","created_user":"LECOQH","created_date":"2023-03-16T16:02:54+01:00","last_edited_user":"LECOQH","last_edited_date":"2023-03-16T16:02:54+01:00","geo_point_2d":{"lon":2.3298201952433653,"lat":48.89161762679698}}},{"type":"Feature","geometry":{"coordinates":[2.3370775175459433,48.90000468303753],"type":"Point"},"properties":{"id_projet":"1800","libelle":"FRANCOISE DORLEAC (2) MAT","adresse":"2 place FRANCOISE DORLEAC","arr_libelle":"18\u00e8me Ardt","arr_insee":75118,"annee_scol":null,"type_etabl":null,"created_user":null,"created_date":null,"last_edited_user":null,"last_edited_date":null,"geo_point_2d":{"lon":2.3370775175459433,"lat":48.90000468303753}}},{"type":"Feature","geometry":{"coordinates":[2.3604653249739895,48.89445526934687],"type":"Point"},"properties":{"id_projet":"1800","libelle":"MAURICE GENEVOIX (3) POLY","adresse":"3 rue MAURICE GENEVOIX","arr_libelle":"18\u00e8me Ardt","arr_insee":75118,"annee_scol":null,"type_etabl":null,"created_user":null,"created_date":null,"last_edited_user":null,"last_edited_date":null,"geo_point_2d":{"lon":2.3604653249739895,"lat":48.89445526934687}}},{"type":"Feature","geometry":{"coordinates":[2.3290873901975875,48.88573336564051],"type":"Point"},"properties":{"id_projet":"1800","libelle":"FOREST (14) POLY","adresse":"14 rue FOREST","arr_libelle":"18\u00e8me Ardt","arr_insee":75118,"annee_scol":null,"type_etabl":null,"created_user":null,"created_date":null,"last_edited_user":null,"last_edited_date":null,"geo_point_2d":{"lon":2.3290873901975875,"lat":48.88573336564051}}},{"type":"Feature","geometry":{"coordinates":[2.3640416412564225,48.89127641409966],"type":"Point"},"properties":{"id_projet":"1800","libelle":"TORCY (12) POLY","adresse":"12 RUE DE TORCY","arr_libelle":"18\u00e8me Ardt","arr_insee":75118,"annee_scol":null,"type_etabl":null,"created_user":null,"created_date":null,"last_edited_user":null,"last_edited_date":null,"geo_point_2d":{"lon":2.3640416412564225,"lat":48.89127641409966}}},{"type":"Feature","geometry":{"coordinates":[2.3339697722268116,48.886944764107234],"type":"Point"},"properties":{"id_projet":"ELEMENTAIRES (ann\u00e9e scolaire 2018\/2019)","libelle":"LEPIC (62) ELEM","adresse":"62 rue LEPIC","arr_libelle":"18\u00e8me Ardt","arr_insee":75118,"annee_scol":null,"type_etabl":null,"created_user":null,"created_date":null,"last_edited_user":null,"last_edited_date":null,"geo_point_2d":{"lon":2.3339697722268116,"lat":48.886944764107234}}},{"type":"Feature","geometry":{"coordinates":[2.3307267239274227,48.89154833355772],"type":"Point"},"properties":{"id_projet":"ELEMENTAIRES (ann\u00e9e scolaire 2018\/2019)","libelle":"JOSEPH DE MAISTRE (29) ELEM","adresse":"29 rue JOSEPH DE MAISTRE","arr_libelle":"18\u00e8me Ardt","arr_insee":75118,"annee_scol":null,"type_etabl":null,"created_user":null,"created_date":null,"last_edited_user":null,"last_edited_date":null,"geo_point_2d":{"lon":2.3307267239274227,"lat":48.89154833355772}}},{"type":"Feature","geometry":{"coordinates":[2.335058903953991,48.89195637174007],"type":"Point"},"properties":{"id_projet":"ELEMENTAIRES (ann\u00e9e scolaire 2018\/2019)","libelle":"DAMREMONT (65) ELEM B","adresse":"65 rue DAMREMONT","arr_libelle":"18\u00e8me Ardt","arr_insee":75118,"annee_scol":null,"type_etabl":null,"created_user":null,"created_date":null,"last_edited_user":null,"last_edited_date":null,"geo_point_2d":{"lon":2.335058903953991,"lat":48.89195637174007}}},{"type":"Feature","geometry":{"coordinates":[2.351539771953349,48.889067460492676],"type":"Point"},"properties":{"id_projet":"3482","libelle":"GEORGES CLEMENCEAU","adresse":"43 RUE DES POISSONNIERS","arr_libelle":"18\u00e8me Ardt","arr_insee":75118,"annee_scol":null,"type_etabl":null,"created_user":null,"created_date":null,"last_edited_user":null,"last_edited_date":null,"geo_point_2d":{"lon":2.351539771953349,"lat":48.889067460492676}}},{"type":"Feature","geometry":{"coordinates":[2.353029210494406,48.88904594039968],"type":"Point"},"properties":{"id_projet":"3221","libelle":"ORAN (18) ELEM","adresse":"18 RUE D' ORAN","arr_libelle":"18\u00e8me Ardt","arr_insee":75118,"annee_scol":null,"type_etabl":null,"created_user":null,"created_date":null,"last_edited_user":null,"last_edited_date":null,"geo_point_2d":{"lon":2.353029210494406,"lat":48.88904594039968}}},{"type":"Feature","geometry":{"coordinates":[2.3530219082435435,48.896813673292016],"type":"Point"},"properties":{"id_projet":"3220","libelle":"POISSONNIERS (142) POLY","adresse":"142 RUE DES POISSONNIERS","arr_libelle":"18\u00e8me Ardt","arr_insee":75118,"annee_scol":null,"type_etabl":null,"created_user":null,"created_date":null,"last_edited_user":null,"last_edited_date":null,"geo_point_2d":{"lon":2.3530219082435435,"lat":48.896813673292016}}},{"type":"Feature","geometry":{"coordinates":[2.3618729573847834,48.88647962779188],"type":"Point"},"properties":{"id_projet":"3260","libelle":"DEPARTEMENT (51) MAT","adresse":"51 RUE DU DEPARTEMENT","arr_libelle":"18\u00e8me Ardt","arr_insee":75118,"annee_scol":null,"type_etabl":null,"created_user":null,"created_date":null,"last_edited_user":null,"last_edited_date":null,"geo_point_2d":{"lon":2.3618729573847834,"lat":48.88647962779188}}},{"type":"Feature","geometry":{"coordinates":[2.3604653249629446,48.894455270246134],"type":"Point"},"properties":{"id_projet":"3260","libelle":"MAURICE GENEVOIX (3) POLY","adresse":"3 rue MAURICE GENEVOIX","arr_libelle":"18\u00e8me Ardt","arr_insee":75118,"annee_scol":null,"type_etabl":null,"created_user":null,"created_date":null,"last_edited_user":null,"last_edited_date":null,"geo_point_2d":{"lon":2.3604653249629446,"lat":48.894455270246134}}},{"type":"Feature","geometry":{"coordinates":[2.342154627279558,48.88854677993696],"type":"Point"},"properties":{"id_projet":"ELEMENTAIRES (ann\u00e9e scolaire 2017\/2018)","libelle":"MONT CENIS (26) ELEM","adresse":"26 RUE DU MONT CENIS","arr_libelle":"18\u00e8me Ardt","arr_insee":75118,"annee_scol":null,"type_etabl":null,"created_user":null,"created_date":null,"last_edited_user":null,"last_edited_date":null,"geo_point_2d":{"lon":2.342154627279558,"lat":48.88854677993696}}},{"type":"Feature","geometry":{"coordinates":[2.351785340678661,48.884956337590936],"type":"Point"},"properties":{"id_projet":"3260","libelle":"GOUTTE D'OR (49B)  POLY","adresse":"49 bis RUE DE LA GOUTTE D'OR","arr_libelle":"18\u00e8me Ardt","arr_insee":75118,"annee_scol":null,"type_etabl":null,"created_user":null,"created_date":null,"last_edited_user":null,"last_edited_date":null,"geo_point_2d":{"lon":2.351785340678661,"lat":48.884956337590936}}},{"type":"Feature","geometry":{"coordinates":[2.331537079377295,48.895418520122206],"type":"Point"},"properties":{"id_projet":"3260","libelle":"VAUVENARGUES (52) MAT","adresse":"52 rue VAUVENARGUES","arr_libelle":"18\u00e8me Ardt","arr_insee":75118,"annee_scol":null,"type_etabl":null,"created_user":null,"created_date":null,"last_edited_user":null,"last_edited_date":null,"geo_point_2d":{"lon":2.331537079377295,"lat":48.895418520122206}}},{"type":"Feature","geometry":{"coordinates":[2.3530219082435435,48.896813673292016],"type":"Point"},"properties":{"id_projet":"3260","libelle":"POISSONNIERS (142) POLY","adresse":"142 RUE DES POISSONNIERS","arr_libelle":"18\u00e8me Ardt","arr_insee":75118,"annee_scol":null,"type_etabl":null,"created_user":null,"created_date":null,"last_edited_user":null,"last_edited_date":null,"geo_point_2d":{"lon":2.3530219082435435,"lat":48.896813673292016}}},{"type":"Feature","geometry":{"coordinates":[2.3316322202176862,48.89532110514831],"type":"Point"},"properties":{"id_projet":"3221","libelle":"VAUVENARGUES (50) ELEM","adresse":"50 rue VAUVENARGUES","arr_libelle":"18\u00e8me Ardt","arr_insee":75118,"annee_scol":null,"type_etabl":null,"created_user":null,"created_date":null,"last_edited_user":null,"last_edited_date":null,"geo_point_2d":{"lon":2.3316322202176862,"lat":48.89532110514831}}},{"type":"Feature","geometry":{"coordinates":[2.3604653249629446,48.894455270246134],"type":"Point"},"properties":{"id_projet":"ELEMENTAIRES (ann\u00e9e scolaire 2017\/2018)","libelle":"MAURICE GENEVOIX (3) POLY","adresse":"3 rue MAURICE GENEVOIX","arr_libelle":"18\u00e8me Ardt","arr_insee":75118,"annee_scol":null,"type_etabl":null,"created_user":null,"created_date":null,"last_edited_user":null,"last_edited_date":null,"geo_point_2d":{"lon":2.3604653249629446,"lat":48.894455270246134}}},{"type":"Feature","geometry":{"coordinates":[2.344513080958964,48.891300955700956],"type":"Point"},"properties":{"id_projet":"3221","libelle":"HERMEL (20) ELEM","adresse":"20 rue HERMEL","arr_libelle":"18\u00e8me Ardt","arr_insee":75118,"annee_scol":null,"type_etabl":null,"created_user":null,"created_date":null,"last_edited_user":null,"last_edited_date":null,"geo_point_2d":{"lon":2.344513080958964,"lat":48.891300955700956}}},{"type":"Feature","geometry":{"coordinates":[2.3439649798902322,48.89207701097171],"type":"Point"},"properties":{"id_projet":"4883","libelle":"MONT CENIS (77) MAT","adresse":"77 RUE DU MONT CENIS","arr_libelle":"18\u00e8me Ardt","arr_insee":75118,"annee_scol":null,"type_etabl":null,"created_user":null,"created_date":null,"last_edited_user":null,"last_edited_date":null,"geo_point_2d":{"lon":2.3439649798902322,"lat":48.89207701097171}}},{"type":"Feature","geometry":{"coordinates":[2.337932093180363,48.88882548893339],"type":"Point"},"properties":{"id_projet":"4883","libelle":"CONSTANTIN PECQUEUR (1) MAT","adresse":"1 PLACE CONSTANTIN PECQUEUR","arr_libelle":"18\u00e8me Ardt","arr_insee":75118,"annee_scol":null,"type_etabl":null,"created_user":null,"created_date":null,"last_edited_user":null,"last_edited_date":null,"geo_point_2d":{"lon":2.337932093180363,"lat":48.88882548893339}}},{"type":"Feature","geometry":{"coordinates":[2.341541508231377,48.89630661579061],"type":"Point"},"properties":{"id_projet":"4883","libelle":"GUSTAVE ROUANET (1) MAT","adresse":"1 RUE GUSTAVE ROUANET","arr_libelle":"18\u00e8me Ardt","arr_insee":75118,"annee_scol":null,"type_etabl":null,"created_user":null,"created_date":null,"last_edited_user":null,"last_edited_date":null,"geo_point_2d":{"lon":2.341541508231377,"lat":48.89630661579061}}},{"type":"Feature","geometry":{"coordinates":[2.364816077426754,48.89109047088566],"type":"Point"},"properties":{"id_projet":"ELEMENTAIRES (ann\u00e9e scolaire 2019\/2020)","libelle":"TORCY (5-7) ELEM","adresse":"5 RUE DE TORCY","arr_libelle":"18\u00e8me Ardt","arr_insee":75118,"annee_scol":null,"type_etabl":null,"created_user":null,"created_date":null,"last_edited_user":null,"last_edited_date":null,"geo_point_2d":{"lon":2.364816077426754,"lat":48.89109047088566}}},{"type":"Feature","geometry":{"coordinates":[2.3587359522961213,48.888872046029746],"type":"Point"},"properties":{"id_projet":"ELEMENTAIRES (ann\u00e9e scolaire 2021\/2022)","libelle":"DOUDEAUVILLE (7) ELEM","adresse":"7 RUE DOUDEAUVILLE","arr_libelle":"18\u00e8me Ardt","arr_insee":75118,"annee_scol":"2021-2022","type_etabl":"El\u00e9mentaire","created_user":null,"created_date":null,"last_edited_user":null,"last_edited_date":null,"geo_point_2d":{"lon":2.3587359522961213,"lat":48.888872046029746}}},{"type":"Feature","geometry":{"coordinates":[2.354178637766867,48.88563541815778],"type":"Point"},"properties":{"id_projet":"4886","libelle":"ST LUC (3) MAT","adresse":"3 RUE SAINT LUC","arr_libelle":"18\u00e8me Ardt","arr_insee":75118,"annee_scol":"2021-2022","type_etabl":"MAT","created_user":null,"created_date":null,"last_edited_user":null,"last_edited_date":null,"geo_point_2d":{"lon":2.354178637766867,"lat":48.88563541815778}}},{"type":"Feature","geometry":{"coordinates":[2.362632090671074,48.890753007443514],"type":"Point"},"properties":{"id_projet":"ELEMENTAIRES (ann\u00e9e scolaire 2021\/2022)","libelle":"GUADELOUPE (2) ELEM","adresse":"2 RUE DE LA GUADELOUPE","arr_libelle":"18\u00e8me Ardt","arr_insee":75118,"annee_scol":"2021-2022","type_etabl":"El\u00e9mentaire","created_user":null,"created_date":null,"last_edited_user":null,"last_edited_date":null,"geo_point_2d":{"lon":2.362632090671074,"lat":48.890753007443514}}},{"type":"Feature","geometry":{"coordinates":[2.3406539688870316,48.88402411921948],"type":"Point"},"properties":{"id_projet":"4888","libelle":"YVONNE LE TAC","adresse":"7 RUE YVONNE LE TAC","arr_libelle":"18\u00e8me Ardt","arr_insee":75118,"annee_scol":"2021-2022","type_etabl":"COL","created_user":null,"created_date":null,"last_edited_user":null,"last_edited_date":null,"geo_point_2d":{"lon":2.3406539688870316,"lat":48.88402411921948}}},{"type":"Feature","geometry":{"coordinates":[2.3444301537371888,48.89416202254935],"type":"Point"},"properties":{"id_projet":"ELEMENTAIRES (ann\u00e9e scolaire 2022\/2023)","libelle":"ST ISAURE (18) ELEM","adresse":"18 RUE SAINTE ISAURE","arr_libelle":"18\u00e8me Ardt","arr_insee":75118,"annee_scol":"2022-2023","type_etabl":"El\u00e9mentaire","created_user":null,"created_date":null,"last_edited_user":null,"last_edited_date":null,"geo_point_2d":{"lon":2.3444301537371888,"lat":48.89416202254935}}},{"type":"Feature","geometry":{"coordinates":[2.354178637766867,48.88563541815778],"type":"Point"},"properties":{"id_projet":"4890","libelle":"ST LUC (3) MAT","adresse":"3 RUE SAINT LUC","arr_libelle":"18\u00e8me Ardt","arr_insee":75118,"annee_scol":"2022-2023","type_etabl":"MAT","created_user":null,"created_date":null,"last_edited_user":null,"last_edited_date":null,"geo_point_2d":{"lon":2.354178637766867,"lat":48.88563541815778}}},{"type":"Feature","geometry":{"coordinates":[2.362632090671074,48.890753007443514],"type":"Point"},"properties":{"id_projet":"ELEMENTAIRES (ann\u00e9e scolaire 2022\/2023)","libelle":"GUADELOUPE (2) ELEM","adresse":"2 RUE DE LA GUADELOUPE","arr_libelle":"18\u00e8me Ardt","arr_insee":75118,"annee_scol":"2022-2023","type_etabl":"El\u00e9mentaire","created_user":null,"created_date":null,"last_edited_user":null,"last_edited_date":null,"geo_point_2d":{"lon":2.362632090671074,"lat":48.890753007443514}}},{"type":"Feature","geometry":{"coordinates":[2.335058903965475,48.89195637084083],"type":"Point"},"properties":{"id_projet":"ELEMENTAIRES (ann\u00e9e scolaire 2023\/2024)","libelle":"DAMREMONT (65) ELEM B","adresse":"65 RUE DAMREMONT","arr_libelle":"18\u00e8me Ardt","arr_insee":75118,"annee_scol":"2023-2024","type_etabl":"El\u00e9mentaire","created_user":"LECOQH","created_date":"2023-03-16T16:02:48+01:00","last_edited_user":"LECOQH","last_edited_date":"2023-03-16T16:02:48+01:00","geo_point_2d":{"lon":2.335058903965475,"lat":48.89195637084083}}},{"type":"Feature","geometry":{"coordinates":[2.337455554511174,48.90006352003924],"type":"Point"},"properties":{"id_projet":"ELEMENTAIRES (ann\u00e9e scolaire 2018\/2019)","libelle":"FRANCOISE DORLEAC  ELEM (8)A","adresse":"8 place FRANCOISE DORLEAC","arr_libelle":"18\u00e8me Ardt","arr_insee":75118,"annee_scol":null,"type_etabl":null,"created_user":null,"created_date":null,"last_edited_user":null,"last_edited_date":null,"geo_point_2d":{"lon":2.337455554511174,"lat":48.90006352003924}}},{"type":"Feature","geometry":{"coordinates":[2.335379864364331,48.89678109316124],"type":"Point"},"properties":{"id_projet":"4840","libelle":"PAUL ABADIE (1) MAT","adresse":"1 RUE PAUL ABADIE","arr_libelle":"18\u00e8me Ardt","arr_insee":75118,"annee_scol":null,"type_etabl":null,"created_user":null,"created_date":null,"last_edited_user":null,"last_edited_date":null,"geo_point_2d":{"lon":2.335379864364331,"lat":48.89678109316124}}},{"type":"Feature","geometry":{"coordinates":[2.3315370793888412,48.895418519222936],"type":"Point"},"properties":{"id_projet":"1800","libelle":"VAUVENARGUES (52) MAT","adresse":"52 rue VAUVENARGUES","arr_libelle":"18\u00e8me Ardt","arr_insee":75118,"annee_scol":null,"type_etabl":null,"created_user":null,"created_date":null,"last_edited_user":null,"last_edited_date":null,"geo_point_2d":{"lon":2.3315370793888412,"lat":48.895418519222936}}},{"type":"Feature","geometry":{"coordinates":[2.3408657496618233,48.883553826797744],"type":"Point"},"properties":{"id_projet":"1800","libelle":"ORSEL (56) MAT","adresse":"56 RUE D' ORSEL","arr_libelle":"18\u00e8me Ardt","arr_insee":75118,"annee_scol":null,"type_etabl":null,"created_user":null,"created_date":null,"last_edited_user":null,"last_edited_date":null,"geo_point_2d":{"lon":2.3408657496618233,"lat":48.883553826797744}}},{"type":"Feature","geometry":{"coordinates":[2.3606096721828242,48.885570454780996],"type":"Point"},"properties":{"id_projet":"ELEMENTAIRES (ann\u00e9e scolaire 2018\/2019)","libelle":"PAJOL (11) POLY","adresse":"11 bis rue PAJOL","arr_libelle":"18\u00e8me Ardt","arr_insee":75118,"annee_scol":null,"type_etabl":null,"created_user":null,"created_date":null,"last_edited_user":null,"last_edited_date":null,"geo_point_2d":{"lon":2.3606096721828242,"lat":48.885570454780996}}},{"type":"Feature","geometry":{"coordinates":[2.3645871569639865,48.892715723812195],"type":"Point"},"properties":{"id_projet":"ELEMENTAIRES (ann\u00e9e scolaire 2018\/2019)","libelle":"CUGNOT (30) POLY","adresse":"30 rue CUGNOT","arr_libelle":"18\u00e8me Ardt","arr_insee":75118,"annee_scol":null,"type_etabl":null,"created_user":null,"created_date":null,"last_edited_user":null,"last_edited_date":null,"geo_point_2d":{"lon":2.3645871569639865,"lat":48.892715723812195}}},{"type":"Feature","geometry":{"coordinates":[2.3445130809702857,48.891300954801665],"type":"Point"},"properties":{"id_projet":"ELEMENTAIRES (ann\u00e9e scolaire 2018\/2019)","libelle":"HERMEL (20) ELEM","adresse":"20 rue HERMEL","arr_libelle":"18\u00e8me Ardt","arr_insee":75118,"annee_scol":null,"type_etabl":null,"created_user":null,"created_date":null,"last_edited_user":null,"last_edited_date":null,"geo_point_2d":{"lon":2.3445130809702857,"lat":48.891300954801665}}},{"type":"Feature","geometry":{"coordinates":[2.361158272598431,48.88636492801034],"type":"Point"},"properties":{"id_projet":"ELEMENTAIRES (ann\u00e9e scolaire 2018\/2019)","libelle":"PHILIPPE DE GIRARD (58) ELEM","adresse":"58 rue PHILIPPE DE GIRARD","arr_libelle":"18\u00e8me Ardt","arr_insee":75118,"annee_scol":null,"type_etabl":null,"created_user":null,"created_date":null,"last_edited_user":null,"last_edited_date":null,"geo_point_2d":{"lon":2.361158272598431,"lat":48.88636492801034}}},{"type":"Feature","geometry":{"coordinates":[2.3390596733416458,48.88651853207588],"type":"Point"},"properties":{"id_projet":"1800","libelle":"JEAN-BAPTISTE CLEMENT (4) MAT","adresse":"4 place JEAN-BAPTISTE CLEMENT","arr_libelle":"18\u00e8me Ardt","arr_insee":75118,"annee_scol":null,"type_etabl":null,"created_user":null,"created_date":null,"last_edited_user":null,"last_edited_date":null,"geo_point_2d":{"lon":2.3390596733416458,"lat":48.88651853207588}}},{"type":"Feature","geometry":{"coordinates":[2.3448803625375945,48.89589084627452],"type":"Point"},"properties":{"id_projet":"1800","libelle":"CHAMPIONNET (72) MAT","adresse":"72 rue CHAMPIONNET","arr_libelle":"18\u00e8me Ardt","arr_insee":75118,"annee_scol":null,"type_etabl":null,"created_user":null,"created_date":null,"last_edited_user":null,"last_edited_date":null,"geo_point_2d":{"lon":2.3448803625375945,"lat":48.89589084627452}}},{"type":"Feature","geometry":{"coordinates":[2.3374555544997286,48.90006352093851],"type":"Point"},"properties":{"id_projet":"ELEMENTAIRES (ann\u00e9e scolaire 2017\/2018)","libelle":"FRANCOISE DORLEAC ELEM (8)B","adresse":"8 place FRANCOISE DORLEAC","arr_libelle":"18\u00e8me Ardt","arr_insee":75118,"annee_scol":null,"type_etabl":null,"created_user":null,"created_date":null,"last_edited_user":null,"last_edited_date":null,"geo_point_2d":{"lon":2.3374555544997286,"lat":48.90006352093851}}},{"type":"Feature","geometry":{"coordinates":[2.3298201952202153,48.89161762859551],"type":"Point"},"properties":{"id_projet":"3482","libelle":"ANTOINE COYSEVOX","adresse":"16 rue COYSEVOX","arr_libelle":"18\u00e8me Ardt","arr_insee":75118,"annee_scol":null,"type_etabl":null,"created_user":null,"created_date":null,"last_edited_user":null,"last_edited_date":null,"geo_point_2d":{"lon":2.3298201952202153,"lat":48.89161762859551}}},{"type":"Feature","geometry":{"coordinates":[2.3514285246003888,48.88635451442906],"type":"Point"},"properties":{"id_projet":"3260","libelle":"RICHOMME (18) MAT","adresse":"18 rue RICHOMME","arr_libelle":"18\u00e8me Ardt","arr_insee":75118,"annee_scol":null,"type_etabl":null,"created_user":null,"created_date":null,"last_edited_user":null,"last_edited_date":null,"geo_point_2d":{"lon":2.3514285246003888,"lat":48.88635451442906}}},{"type":"Feature","geometry":{"coordinates":[2.3439649798675704,48.89207701277022],"type":"Point"},"properties":{"id_projet":"3260","libelle":"MONT CENIS (77) MAT","adresse":"77 RUE DU MONT CENIS","arr_libelle":"18\u00e8me Ardt","arr_insee":75118,"annee_scol":null,"type_etabl":null,"created_user":null,"created_date":null,"last_edited_user":null,"last_edited_date":null,"geo_point_2d":{"lon":2.3439649798675704,"lat":48.89207701277022}}},{"type":"Feature","geometry":{"coordinates":[2.364041641245438,48.89127641499891],"type":"Point"},"properties":{"id_projet":"3260","libelle":"TORCY (12) MAT","adresse":"12 RUE DE TORCY","arr_libelle":"18\u00e8me Ardt","arr_insee":75118,"annee_scol":null,"type_etabl":null,"created_user":null,"created_date":null,"last_edited_user":null,"last_edited_date":null,"geo_point_2d":{"lon":2.364041641245438,"lat":48.89127641499891}}},{"type":"Feature","geometry":{"coordinates":[2.3374555544997286,48.90006352093851],"type":"Point"},"properties":{"id_projet":"3221","libelle":"FRANCOISE DORLEAC  ELEM (8)A","adresse":"8 place FRANCOISE DORLEAC","arr_libelle":"18\u00e8me Ardt","arr_insee":75118,"annee_scol":null,"type_etabl":null,"created_user":null,"created_date":null,"last_edited_user":null,"last_edited_date":null,"geo_point_2d":{"lon":2.3374555544997286,"lat":48.90006352093851}}},{"type":"Feature","geometry":{"coordinates":[2.351945405231184,48.894458829739456],"type":"Point"},"properties":{"id_projet":"3222","libelle":"GERARD PHILIPE","adresse":"8 RUE DES AMIRAUX","arr_libelle":"18\u00e8me Ardt","arr_insee":75118,"annee_scol":null,"type_etabl":null,"created_user":null,"created_date":null,"last_edited_user":null,"last_edited_date":null,"geo_point_2d":{"lon":2.351945405231184,"lat":48.894458829739456}}},{"type":"Feature","geometry":{"coordinates":[2.358718249609901,48.8861817362706],"type":"Point"},"properties":{"id_projet":"ELEMENTAIRES (ann\u00e9e scolaire 2017\/2018)","libelle":"JEAN FRANCOIS LEPINE (6) ELEM","adresse":"6 rue JEAN-FRANCOIS LEPINE","arr_libelle":"18\u00e8me Ardt","arr_insee":75118,"annee_scol":null,"type_etabl":null,"created_user":null,"created_date":null,"last_edited_user":null,"last_edited_date":null,"geo_point_2d":{"lon":2.358718249609901,"lat":48.8861817362706}}},{"type":"Feature","geometry":{"coordinates":[2.3290873901975875,48.88573336564051],"type":"Point"},"properties":{"id_projet":"3220","libelle":"FOREST (14) POLY","adresse":"14 rue FOREST","arr_libelle":"18\u00e8me Ardt","arr_insee":75118,"annee_scol":null,"type_etabl":null,"created_user":null,"created_date":null,"last_edited_user":null,"last_edited_date":null,"geo_point_2d":{"lon":2.3290873901975875,"lat":48.88573336564051}}},{"type":"Feature","geometry":{"coordinates":[2.3458796699341153,48.89164799782913],"type":"Point"},"properties":{"id_projet":"3221","libelle":"FERDINAND FLOCON (5) ELEM","adresse":"5 rue FERDINAND FLOCON","arr_libelle":"18\u00e8me Ardt","arr_insee":75118,"annee_scol":null,"type_etabl":null,"created_user":null,"created_date":null,"last_edited_user":null,"last_edited_date":null,"geo_point_2d":{"lon":2.3458796699341153,"lat":48.89164799782913}}},{"type":"Feature","geometry":{"coordinates":[2.350400754079755,48.89461849696675],"type":"Point"},"properties":{"id_projet":"4840","libelle":"AMIRAUX (19) MAT","adresse":"19 RUE DES AMIRAUX","arr_libelle":"18\u00e8me Ardt","arr_insee":75118,"annee_scol":null,"type_etabl":null,"created_user":null,"created_date":null,"last_edited_user":null,"last_edited_date":null,"geo_point_2d":{"lon":2.350400754079755,"lat":48.89461849696675}}},{"type":"Feature","geometry":{"coordinates":[2.3551404241180247,48.8899002411621],"type":"Point"},"properties":{"id_projet":"ELEMENTAIRES (ann\u00e9e scolaire 2019\/2020)","libelle":"EMILE DUPLOYE (27) MAT","adresse":"27 RUE EMILE DUPLOYE","arr_libelle":"18\u00e8me Ardt","arr_insee":75118,"annee_scol":null,"type_etabl":null,"created_user":null,"created_date":null,"last_edited_user":null,"last_edited_date":null,"geo_point_2d":{"lon":2.3551404241180247,"lat":48.8899002411621}}},{"type":"Feature","geometry":{"coordinates":[2.3477978551722156,48.88793298898723],"type":"Point"},"properties":{"id_projet":"ELEMENTAIRES (ann\u00e9e scolaire 2020\/2021)","libelle":"CLIGNANCOURT (61) ELEM","adresse":"61 RUE DE CLIGNANCOURT","arr_libelle":"18\u00e8me Ardt","arr_insee":75118,"annee_scol":null,"type_etabl":null,"created_user":null,"created_date":null,"last_edited_user":null,"last_edited_date":null,"geo_point_2d":{"lon":2.3477978551722156,"lat":48.88793298898723}}},{"type":"Feature","geometry":{"coordinates":[2.337452792317367,48.8993899007631],"type":"Point"},"properties":{"id_projet":"ELEMENTAIRES (ann\u00e9e scolaire 2020\/2021)","libelle":"FRANCOISE DORLEAC  ELEM A","adresse":"60 RUE RENE BINET","arr_libelle":"18\u00e8me Ardt","arr_insee":75118,"annee_scol":null,"type_etabl":null,"created_user":null,"created_date":null,"last_edited_user":null,"last_edited_date":null,"geo_point_2d":{"lon":2.337452792317367,"lat":48.8993899007631}}},{"type":"Feature","geometry":{"coordinates":[2.351945405242378,48.894458828840186],"type":"Point"},"properties":{"id_projet":"4882","libelle":"GERARD PHILIPE","adresse":"8 RUE DES AMIRAUX","arr_libelle":"18\u00e8me Ardt","arr_insee":75118,"annee_scol":null,"type_etabl":null,"created_user":null,"created_date":null,"last_edited_user":null,"last_edited_date":null,"geo_point_2d":{"lon":2.351945405242378,"lat":48.894458828840186}}},{"type":"Feature","geometry":{"coordinates":[2.3515397719869475,48.88906745779489],"type":"Point"},"properties":{"id_projet":"4885","libelle":"GEORGES CLEMENCEAU","adresse":"43 RUE DES POISSONNIERS","arr_libelle":"18\u00e8me Ardt","arr_insee":75118,"annee_scol":"2020-2021","type_etabl":"COL","created_user":null,"created_date":null,"last_edited_user":null,"last_edited_date":null,"geo_point_2d":{"lon":2.3515397719869475,"lat":48.88906745779489}}},{"type":"Feature","geometry":{"coordinates":[2.352811098401421,48.890330350988556],"type":"Point"},"properties":{"id_projet":"4886","libelle":"MARCADET (29) MAT","adresse":"29 RUE MARCADET","arr_libelle":"18\u00e8me Ardt","arr_insee":75118,"annee_scol":"2021-2022","type_etabl":"MAT","created_user":null,"created_date":null,"last_edited_user":null,"last_edited_date":null,"geo_point_2d":{"lon":2.352811098401421,"lat":48.890330350988556}}},{"type":"Feature","geometry":{"coordinates":[2.3606096722049075,48.88557045298243],"type":"Point"},"properties":{"id_projet":"ELEMENTAIRES (ann\u00e9e scolaire 2021\/2022)","libelle":"PAJOL (11) POLY","adresse":"11 RUE PAJOL","arr_libelle":"18\u00e8me Ardt","arr_insee":75118,"annee_scol":"2021-2022","type_etabl":"Polyvalent","created_user":null,"created_date":null,"last_edited_user":null,"last_edited_date":null,"geo_point_2d":{"lon":2.3606096722049075,"lat":48.88557045298243}}},{"type":"Feature","geometry":{"coordinates":[2.3422511488545315,48.899127617384266],"type":"Point"},"properties":{"id_projet":"4890","libelle":"FERNAND LABORI (19) MAT","adresse":"19 RUE FERNAND LABORI","arr_libelle":"18\u00e8me Ardt","arr_insee":75118,"annee_scol":"2022-2023","type_etabl":"MAT","created_user":null,"created_date":null,"last_edited_user":null,"last_edited_date":null,"geo_point_2d":{"lon":2.3422511488545315,"lat":48.899127617384266}}},{"type":"Feature","geometry":{"coordinates":[2.3527287013006752,48.889684350238106],"type":"Point"},"properties":{"id_projet":"ELEMENTAIRES (ann\u00e9e scolaire 2021\/2022)","libelle":"PIERRE BUDIN (5) ELEM","adresse":"5 RUE PIERRE BUDIN","arr_libelle":"18\u00e8me Ardt","arr_insee":75118,"annee_scol":"2021-2022","type_etabl":"El\u00e9mentaire","created_user":null,"created_date":null,"last_edited_user":null,"last_edited_date":null,"geo_point_2d":{"lon":2.3527287013006752,"lat":48.889684350238106}}},{"type":"Feature","geometry":{"coordinates":[2.3587182496320507,48.886181734472096],"type":"Point"},"properties":{"id_projet":"ELEMENTAIRES (ann\u00e9e scolaire 2021\/2022)","libelle":"JEAN FRANCOIS LEPINE (6) ELEM","adresse":"6 RUE JEAN FRANCOIS LEPINE","arr_libelle":"18\u00e8me Ardt","arr_insee":75118,"annee_scol":"2021-2022","type_etabl":"El\u00e9mentaire","created_user":null,"created_date":null,"last_edited_user":null,"last_edited_date":null,"geo_point_2d":{"lon":2.3587182496320507,"lat":48.886181734472096}}},{"type":"Feature","geometry":{"coordinates":[2.3445130809929275,48.89130095300317],"type":"Point"},"properties":{"id_projet":"ELEMENTAIRES (ann\u00e9e scolaire 2021\/2022)","libelle":"HERMEL (20) ELEM","adresse":"20 RUE HERMEL","arr_libelle":"18\u00e8me Ardt","arr_insee":75118,"annee_scol":"2021-2022","type_etabl":"El\u00e9mentaire","created_user":null,"created_date":null,"last_edited_user":null,"last_edited_date":null,"geo_point_2d":{"lon":2.3445130809929275,"lat":48.89130095300317}}},{"type":"Feature","geometry":{"coordinates":[2.332815674978112,48.89581466967536],"type":"Point"},"properties":{"id_projet":"4888","libelle":"HECTOR BERLIOZ","adresse":"17 RUE GEORGETTE AGUTTE","arr_libelle":"18\u00e8me Ardt","arr_insee":75118,"annee_scol":"2021-2022","type_etabl":"COL","created_user":null,"created_date":null,"last_edited_user":null,"last_edited_date":null,"geo_point_2d":{"lon":2.332815674978112,"lat":48.89581466967536}}},{"type":"Feature","geometry":{"coordinates":[2.3448803625489103,48.895890845375234],"type":"Point"},"properties":{"id_projet":"4890","libelle":"CHAMPIONNET (72) MAT","adresse":"72 RUE CHAMPIONNET","arr_libelle":"18\u00e8me Ardt","arr_insee":75118,"annee_scol":"2022-2023","type_etabl":"MAT","created_user":null,"created_date":null,"last_edited_user":null,"last_edited_date":null,"geo_point_2d":{"lon":2.3448803625489103,"lat":48.895890845375234}}},{"type":"Feature","geometry":{"coordinates":[2.351019164902994,48.88506323432988],"type":"Point"},"properties":{"id_projet":"ELEMENTAIRES (ann\u00e9e scolaire 2022\/2023)","libelle":"GOUTTE D'OR (57) POLY","adresse":"57 RUE DE LA GOUTTE D'OR","arr_libelle":"18\u00e8me Ardt","arr_insee":75118,"annee_scol":"2022-2023","type_etabl":"Polyvalent","created_user":null,"created_date":null,"last_edited_user":null,"last_edited_date":null,"geo_point_2d":{"lon":2.351019164902994,"lat":48.88506323432988}}},{"type":"Feature","geometry":{"coordinates":[2.3606096722049075,48.88557045298243],"type":"Point"},"properties":{"id_projet":"ELEMENTAIRES (ann\u00e9e scolaire 2022\/2023)","libelle":"PAJOL (11) POLY","adresse":"11 RUE PAJOL","arr_libelle":"18\u00e8me Ardt","arr_insee":75118,"annee_scol":"2022-2023","type_etabl":"Polyvalent","created_user":null,"created_date":null,"last_edited_user":null,"last_edited_date":null,"geo_point_2d":{"lon":2.3606096722049075,"lat":48.88557045298243}}},{"type":"Feature","geometry":{"coordinates":[2.3290873902091733,48.885733364741284],"type":"Point"},"properties":{"id_projet":"4894","libelle":"FOREST (14) POLY","adresse":"14 RUE FOREST","arr_libelle":"18\u00e8me Ardt","arr_insee":75118,"annee_scol":"2023-2024","type_etabl":"Polyvalent","created_user":"LECOQH","created_date":"2023-03-16T16:02:36+01:00","last_edited_user":"DASCO","last_edited_date":"2023-03-22T13:20:05+01:00","geo_point_2d":{"lon":2.3290873902091733,"lat":48.885733364741284}}},{"type":"Feature","geometry":{"coordinates":[2.3448803625489103,48.895890845375234],"type":"Point"},"properties":{"id_projet":"4894","libelle":"CHAMPIONNET (72) MAT","adresse":"72 RUE CHAMPIONNET","arr_libelle":"18\u00e8me Ardt","arr_insee":75118,"annee_scol":"2023-2024","type_etabl":"MAT","created_user":"LECOQH","created_date":"2023-03-16T16:02:36+01:00","last_edited_user":"LECOQH","last_edited_date":"2023-03-16T16:02:36+01:00","geo_point_2d":{"lon":2.3448803625489103,"lat":48.895890845375234}}},{"type":"Feature","geometry":{"coordinates":[2.3382587769550267,48.892933147554274],"type":"Point"},"properties":{"id_projet":"4894","libelle":"CLOYS (41) MAT","adresse":"33 RUE DES CLOYS","arr_libelle":"18\u00e8me Ardt","arr_insee":75118,"annee_scol":"2023-2024","type_etabl":"MAT","created_user":"LECOQH","created_date":"2023-03-16T16:02:36+01:00","last_edited_user":"LECOQH","last_edited_date":"2023-03-16T16:02:36+01:00","geo_point_2d":{"lon":2.3382587769550267,"lat":48.892933147554274}}},{"type":"Feature","geometry":{"coordinates":[2.337452792317367,48.8993899007631],"type":"Point"},"properties":{"id_projet":"4894","libelle":"FRANCOISE DORLEAC (2) MAT","adresse":"2 PLACE FRANCOISE DORLEAC","arr_libelle":"18\u00e8me Ardt","arr_insee":75118,"annee_scol":"2023-2024","type_etabl":"MAT","created_user":"LECOQH","created_date":"2023-03-16T16:02:36+01:00","last_edited_user":"LECOQH","last_edited_date":"2023-03-16T16:02:36+01:00","geo_point_2d":{"lon":2.337452792317367,"lat":48.8993899007631}}},{"type":"Feature","geometry":{"coordinates":[2.364554543133914,48.89418329402723],"type":"Point"},"properties":{"id_projet":"4886","libelle":"TCHAIKOVSKI (7) MAT","adresse":"7 RUE TCHAIKOVSKI","arr_libelle":"18\u00e8me Ardt","arr_insee":75118,"annee_scol":"2021-2022","type_etabl":"MAT","created_user":null,"created_date":null,"last_edited_user":null,"last_edited_date":null,"geo_point_2d":{"lon":2.364554543133914,"lat":48.89418329402723}}},{"type":"Feature","geometry":{"coordinates":[2.3398615476756537,48.891715709081886],"type":"Point"},"properties":{"id_projet":"4886","libelle":"RUISSEAU (6) MAT","adresse":"6 RUE DU RUISSEAU","arr_libelle":"18\u00e8me Ardt","arr_insee":75118,"annee_scol":"2021-2022","type_etabl":"MAT","created_user":null,"created_date":null,"last_edited_user":null,"last_edited_date":null,"geo_point_2d":{"lon":2.3398615476756537,"lat":48.891715709081886}}},{"type":"Feature","geometry":{"coordinates":[2.363067598532842,48.8895947927362],"type":"Point"},"properties":{"id_projet":"4893","libelle":"AIME CESAIRE","adresse":"22 RUE PAJOL","arr_libelle":"18\u00e8me Ardt","arr_insee":75118,"annee_scol":"2022-2023","type_etabl":"COL","created_user":null,"created_date":null,"last_edited_user":null,"last_edited_date":null,"geo_point_2d":{"lon":2.363067598532842,"lat":48.8895947927362}}},{"type":"Feature","geometry":{"coordinates":[2.350931337623831,48.88502480929333],"type":"Point"},"properties":{"id_projet":"4890","libelle":"GOUTTE D'OR (57) POLY","adresse":"57 RUE DE LA GOUTTE D'OR","arr_libelle":"18\u00e8me Ardt","arr_insee":75118,"annee_scol":null,"type_etabl":"Polyvalent","created_user":null,"created_date":null,"last_edited_user":null,"last_edited_date":null,"geo_point_2d":{"lon":2.350931337623831,"lat":48.88502480929333}}},{"type":"Feature","geometry":{"coordinates":[2.3645871569749612,48.892715722912946],"type":"Point"},"properties":{"id_projet":"ELEMENTAIRES (ann\u00e9e scolaire 2022\/2023)","libelle":"CUGNOT (30) POLY","adresse":"30 RUE CUGNOT","arr_libelle":"18\u00e8me Ardt","arr_insee":75118,"annee_scol":"2022-2023","type_etabl":"Polyvalent","created_user":null,"created_date":null,"last_edited_user":null,"last_edited_date":null,"geo_point_2d":{"lon":2.3645871569749612,"lat":48.892715722912946}}},{"type":"Feature","geometry":{"coordinates":[2.331537079400387,48.895418518323694],"type":"Point"},"properties":{"id_projet":"4890","libelle":"VAUVENARGUES (52) MAT","adresse":"52 RUE VAUVENARGUES","arr_libelle":"18\u00e8me Ardt","arr_insee":75118,"annee_scol":"2022-2023","type_etabl":"MAT","created_user":null,"created_date":null,"last_edited_user":null,"last_edited_date":null,"geo_point_2d":{"lon":2.331537079400387,"lat":48.895418518323694}}},{"type":"Feature","geometry":{"coordinates":[2.3463763599753693,48.885717261088175],"type":"Point"},"properties":{"id_projet":"4894","libelle":"ANDRE DEL SARTE (11) MAT","adresse":"11 RUE ANDRE DEL SARTE","arr_libelle":"18\u00e8me Ardt","arr_insee":75118,"annee_scol":"2023-2024","type_etabl":"MAT","created_user":"LECOQH","created_date":"2023-03-16T16:02:36+01:00","last_edited_user":"LECOQH","last_edited_date":"2023-03-16T16:02:36+01:00","geo_point_2d":{"lon":2.3463763599753693,"lat":48.885717261088175}}},{"type":"Feature","geometry":{"coordinates":[2.337452792317367,48.8993899007631],"type":"Point"},"properties":{"id_projet":"ELEMENTAIRES (ann\u00e9e scolaire 2023\/2024)","libelle":"FRANCOISE DORLEAC ELEM B","adresse":"8 PLACE FRANCOISE DORLEAC","arr_libelle":"18\u00e8me Ardt","arr_insee":75118,"annee_scol":"2023-2024","type_etabl":"El\u00e9mentaire","created_user":"LECOQH","created_date":"2023-03-16T16:02:48+01:00","last_edited_user":"LECOQH","last_edited_date":"2023-03-16T16:02:48+01:00","geo_point_2d":{"lon":2.337452792317367,"lat":48.8993899007631}}},{"type":"Feature","geometry":{"coordinates":[2.329806112041069,48.890359614050475],"type":"Point"},"properties":{"id_projet":"1800","libelle":"CARPEAUX (5-7) MAT","adresse":"5 rue CARPEAUX","arr_libelle":"18\u00e8me Ardt","arr_insee":75118,"annee_scol":null,"type_etabl":null,"created_user":null,"created_date":null,"last_edited_user":null,"last_edited_date":null,"geo_point_2d":{"lon":2.329806112041069,"lat":48.890359614050475}}},{"type":"Feature","geometry":{"coordinates":[2.353029210505579,48.88904593950042],"type":"Point"},"properties":{"id_projet":"ELEMENTAIRES (ann\u00e9e scolaire 2018\/2019)","libelle":"ORAN (18) ELEM","adresse":"18 RUE D' ORAN","arr_libelle":"18\u00e8me Ardt","arr_insee":75118,"annee_scol":null,"type_etabl":null,"created_user":null,"created_date":null,"last_edited_user":null,"last_edited_date":null,"geo_point_2d":{"lon":2.353029210505579,"lat":48.88904593950042}}},{"type":"Feature","geometry":{"coordinates":[2.340316321975379,48.896314758655784],"type":"Point"},"properties":{"id_projet":"3221","libelle":"GUSTAVE ROUANET (7) ELEM","adresse":"7 rue GUSTAVE ROUANET","arr_libelle":"18\u00e8me Ardt","arr_insee":75118,"annee_scol":null,"type_etabl":null,"created_user":null,"created_date":null,"last_edited_user":null,"last_edited_date":null,"geo_point_2d":{"lon":2.340316321975379,"lat":48.896314758655784}}},{"type":"Feature","geometry":{"coordinates":[2.3596962129112753,48.888379576074],"type":"Point"},"properties":{"id_projet":"3260","libelle":"MARX DORMOY (53B) MAT","adresse":"53 bis rue MARX DORMOY","arr_libelle":"18\u00e8me Ardt","arr_insee":75118,"annee_scol":null,"type_etabl":null,"created_user":null,"created_date":null,"last_edited_user":null,"last_edited_date":null,"geo_point_2d":{"lon":2.3596962129112753,"lat":48.888379576074}}},{"type":"Feature","geometry":{"coordinates":[2.3686660481439104,48.89989353392939],"type":"Point"},"properties":{"id_projet":"3221","libelle":"CHARLES HERMITE (4) ELEM","adresse":"4 rue CHARLES HERMITE","arr_libelle":"18\u00e8me Ardt","arr_insee":75118,"annee_scol":null,"type_etabl":null,"created_user":null,"created_date":null,"last_edited_user":null,"last_edited_date":null,"geo_point_2d":{"lon":2.3686660481439104,"lat":48.89989353392939}}},{"type":"Feature","geometry":{"coordinates":[2.364816077415784,48.891090471784906],"type":"Point"},"properties":{"id_projet":"3221","libelle":"TORCY (5) ELEM","adresse":"5 RUE DE TORCY","arr_libelle":"18\u00e8me Ardt","arr_insee":75118,"annee_scol":null,"type_etabl":null,"created_user":null,"created_date":null,"last_edited_user":null,"last_edited_date":null,"geo_point_2d":{"lon":2.364816077415784,"lat":48.891090471784906}}},{"type":"Feature","geometry":{"coordinates":[2.3651224005851144,48.894068731601536],"type":"Point"},"properties":{"id_projet":"3221","libelle":"EVANGILE (33) ELEM","adresse":"33 RUE DE L' EVANGILE","arr_libelle":"18\u00e8me Ardt","arr_insee":75118,"annee_scol":null,"type_etabl":null,"created_user":null,"created_date":null,"last_edited_user":null,"last_edited_date":null,"geo_point_2d":{"lon":2.3651224005851144,"lat":48.894068731601536}}},{"type":"Feature","geometry":{"coordinates":[2.3611582725874,48.88636492890958],"type":"Point"},"properties":{"id_projet":"ELEMENTAIRES (ann\u00e9e scolaire 2017\/2018)","libelle":"PHILIPPE DE GIRARD (58) ELEM","adresse":"58 rue PHILIPPE DE GIRARD","arr_libelle":"18\u00e8me Ardt","arr_insee":75118,"annee_scol":null,"type_etabl":null,"created_user":null,"created_date":null,"last_edited_user":null,"last_edited_date":null,"geo_point_2d":{"lon":2.3611582725874,"lat":48.88636492890958}}},{"type":"Feature","geometry":{"coordinates":[2.333969772215309,48.88694476500653],"type":"Point"},"properties":{"id_projet":"3221","libelle":"LEPIC (62) ELEM","adresse":"62 rue LEPIC","arr_libelle":"18\u00e8me Ardt","arr_insee":75118,"annee_scol":null,"type_etabl":null,"created_user":null,"created_date":null,"last_edited_user":null,"last_edited_date":null,"geo_point_2d":{"lon":2.333969772215309,"lat":48.88694476500653}}},{"type":"Feature","geometry":{"coordinates":[2.369872461060125,48.89991713437065],"type":"Point"},"properties":{"id_projet":"4883","libelle":"CHARLES HERMITE (2) MAT","adresse":"2 RUE CHARLES HERMITE","arr_libelle":"18\u00e8me Ardt","arr_insee":75118,"annee_scol":null,"type_etabl":null,"created_user":null,"created_date":null,"last_edited_user":null,"last_edited_date":null,"geo_point_2d":{"lon":2.369872461060125,"lat":48.89991713437065}}},{"type":"Feature","geometry":{"coordinates":[2.3514565316595917,48.89357315361589],"type":"Point"},"properties":{"id_projet":"4883","libelle":"SIMPLON (14) POLY","adresse":"14 RUE DU SIMPLON","arr_libelle":"18\u00e8me Ardt","arr_insee":75118,"annee_scol":null,"type_etabl":null,"created_user":null,"created_date":null,"last_edited_user":null,"last_edited_date":null,"geo_point_2d":{"lon":2.3514565316595917,"lat":48.89357315361589}}},{"type":"Feature","geometry":{"coordinates":[2.3444301537371888,48.89416202254935],"type":"Point"},"properties":{"id_projet":"ELEMENTAIRES (ann\u00e9e scolaire 2020\/2021)","libelle":"ST ISAURE (18) ELEM","adresse":"18 RUE SAINTE-ISAURE","arr_libelle":"18\u00e8me Ardt","arr_insee":75118,"annee_scol":null,"type_etabl":null,"created_user":null,"created_date":null,"last_edited_user":null,"last_edited_date":null,"geo_point_2d":{"lon":2.3444301537371888,"lat":48.89416202254935}}},{"type":"Feature","geometry":{"coordinates":[2.3530219082435435,48.896813673292016],"type":"Point"},"properties":{"id_projet":"ELEMENTAIRES (ann\u00e9e scolaire 2020\/2021)","libelle":"POISSONNIERS (142) POLY","adresse":"142 RUE DES POISSONNIERS","arr_libelle":"18\u00e8me Ardt","arr_insee":75118,"annee_scol":null,"type_etabl":null,"created_user":null,"created_date":null,"last_edited_user":null,"last_edited_date":null,"geo_point_2d":{"lon":2.3530219082435435,"lat":48.896813673292016}}},{"type":"Feature","geometry":{"coordinates":[2.3406539688870316,48.88402411921948],"type":"Point"},"properties":{"id_projet":"4885","libelle":"YVONNE LE TAC","adresse":"7 RUE YVONNE LE TAC","arr_libelle":"18\u00e8me Ardt","arr_insee":75118,"annee_scol":"2020-2021","type_etabl":"COL","created_user":null,"created_date":null,"last_edited_user":null,"last_edited_date":null,"geo_point_2d":{"lon":2.3406539688870316,"lat":48.88402411921948}}},{"type":"Feature","geometry":{"coordinates":[2.35516702330106,48.886707350532596],"type":"Point"},"properties":{"id_projet":"ELEMENTAIRES (ann\u00e9e scolaire 2019\/2020)","libelle":"CAVE (11) ELEM","adresse":"11 RUE CAVE","arr_libelle":"18\u00e8me Ardt","arr_insee":75118,"annee_scol":null,"type_etabl":null,"created_user":null,"created_date":null,"last_edited_user":null,"last_edited_date":null,"geo_point_2d":{"lon":2.35516702330106,"lat":48.886707350532596}}},{"type":"Feature","geometry":{"coordinates":[2.3444301537371888,48.89416202254935],"type":"Point"},"properties":{"id_projet":"ELEMENTAIRES (ann\u00e9e scolaire 2019\/2020)","libelle":"ST ISAURE (18) ELEM","adresse":"18 RUE SAINTE-ISAURE","arr_libelle":"18\u00e8me Ardt","arr_insee":75118,"annee_scol":null,"type_etabl":null,"created_user":null,"created_date":null,"last_edited_user":null,"last_edited_date":null,"geo_point_2d":{"lon":2.3444301537371888,"lat":48.89416202254935}}},{"type":"Feature","geometry":{"coordinates":[2.3403163219867738,48.896314757756535],"type":"Point"},"properties":{"id_projet":"ELEMENTAIRES (ann\u00e9e scolaire 2019\/2020)","libelle":"GUSTAVE ROUANET (7) ELEM","adresse":"7 RUE GUSTAVE ROUANET","arr_libelle":"18\u00e8me Ardt","arr_insee":75118,"annee_scol":null,"type_etabl":null,"created_user":null,"created_date":null,"last_edited_user":null,"last_edited_date":null,"geo_point_2d":{"lon":2.3403163219867738,"lat":48.896314757756535}}},{"type":"Feature","geometry":{"coordinates":[2.3477978551722156,48.88793298898723],"type":"Point"},"properties":{"id_projet":"ELEMENTAIRES (ann\u00e9e scolaire 2021\/2022)","libelle":"CLIGNANCOURT (61) ELEM","adresse":"61 RUE DE CLIGNANCOURT","arr_libelle":"18\u00e8me Ardt","arr_insee":75118,"annee_scol":"2021-2022","type_etabl":"El\u00e9mentaire","created_user":null,"created_date":null,"last_edited_user":null,"last_edited_date":null,"geo_point_2d":{"lon":2.3477978551722156,"lat":48.88793298898723}}},{"type":"Feature","geometry":{"coordinates":[2.3528110983902444,48.890330351887826],"type":"Point"},"properties":{"id_projet":"1800","libelle":"MARCADET (29) MAT","adresse":"29 rue MARCADET","arr_libelle":"18\u00e8me Ardt","arr_insee":75118,"annee_scol":null,"type_etabl":null,"created_user":null,"created_date":null,"last_edited_user":null,"last_edited_date":null,"geo_point_2d":{"lon":2.3528110983902444,"lat":48.890330351887826}}},{"type":"Feature","geometry":{"coordinates":[2.352728701289497,48.889684351137355],"type":"Point"},"properties":{"id_projet":"ELEMENTAIRES (ann\u00e9e scolaire 2018\/2019)","libelle":"PIERRE BUDIN (5) ELEM","adresse":"5 rue PIERRE BUDIN","arr_libelle":"18\u00e8me Ardt","arr_insee":75118,"annee_scol":null,"type_etabl":null,"created_user":null,"created_date":null,"last_edited_user":null,"last_edited_date":null,"geo_point_2d":{"lon":2.352728701289497,"lat":48.889684351137355}}},{"type":"Feature","geometry":{"coordinates":[2.3530219082435435,48.896813673292016],"type":"Point"},"properties":{"id_projet":"4840","libelle":"POISSONNIERS (142) POLY","adresse":"142 RUE DES POISSONNIERS","arr_libelle":"18\u00e8me Ardt","arr_insee":75118,"annee_scol":null,"type_etabl":null,"created_user":null,"created_date":null,"last_edited_user":null,"last_edited_date":null,"geo_point_2d":{"lon":2.3530219082435435,"lat":48.896813673292016}}},{"type":"Feature","geometry":{"coordinates":[2.3463763599527936,48.88571726288669],"type":"Point"},"properties":{"id_projet":"1800","libelle":"ANDRE DEL SARTE (11) MAT","adresse":"11 rue ANDRE DEL SARTE","arr_libelle":"18\u00e8me Ardt","arr_insee":75118,"annee_scol":null,"type_etabl":null,"created_user":null,"created_date":null,"last_edited_user":null,"last_edited_date":null,"geo_point_2d":{"lon":2.3463763599527936,"lat":48.88571726288669}}},{"type":"Feature","geometry":{"coordinates":[2.3444301537371888,48.89416202254935],"type":"Point"},"properties":{"id_projet":"ELEMENTAIRES (ann\u00e9e scolaire 2018\/2019)","libelle":"ST ISAURE (18) ELEM","adresse":"18 rue SAINTE-ISAURE","arr_libelle":"18\u00e8me Ardt","arr_insee":75118,"annee_scol":null,"type_etabl":null,"created_user":null,"created_date":null,"last_edited_user":null,"last_edited_date":null,"geo_point_2d":{"lon":2.3444301537371888,"lat":48.89416202254935}}},{"type":"Feature","geometry":{"coordinates":[2.364816077426754,48.89109047088566],"type":"Point"},"properties":{"id_projet":"ELEMENTAIRES (ann\u00e9e scolaire 2018\/2019)","libelle":"TORCY (5) ELEM","adresse":"5 RUE DE TORCY","arr_libelle":"18\u00e8me Ardt","arr_insee":75118,"annee_scol":null,"type_etabl":null,"created_user":null,"created_date":null,"last_edited_user":null,"last_edited_date":null,"geo_point_2d":{"lon":2.364816077426754,"lat":48.89109047088566}}},{"type":"Feature","geometry":{"coordinates":[2.350400754079755,48.89461849696675],"type":"Point"},"properties":{"id_projet":"1800","libelle":"AMIRAUX (19) MAT","adresse":"19 RUE DES AMIRAUX","arr_libelle":"18\u00e8me Ardt","arr_insee":75118,"annee_scol":null,"type_etabl":null,"created_user":null,"created_date":null,"last_edited_user":null,"last_edited_date":null,"geo_point_2d":{"lon":2.350400754079755,"lat":48.89461849696675}}},{"type":"Feature","geometry":{"coordinates":[2.3423908901765307,48.88466921009886],"type":"Point"},"properties":{"id_projet":"3221","libelle":"FOYATIER (1) ELEM","adresse":"1 place SUZANNE VALADON","arr_libelle":"18\u00e8me Ardt","arr_insee":75118,"annee_scol":null,"type_etabl":null,"created_user":null,"created_date":null,"last_edited_user":null,"last_edited_date":null,"geo_point_2d":{"lon":2.3423908901765307,"lat":48.88466921009886}}},{"type":"Feature","geometry":{"coordinates":[2.3298201952202153,48.89161762859551],"type":"Point"},"properties":{"id_projet":"3222","libelle":"ANTOINE COYSEVOX","adresse":"16 rue COYSEVOX","arr_libelle":"18\u00e8me Ardt","arr_insee":75118,"annee_scol":null,"type_etabl":null,"created_user":null,"created_date":null,"last_edited_user":null,"last_edited_date":null,"geo_point_2d":{"lon":2.3298201952202153,"lat":48.89161762859551}}},{"type":"Feature","geometry":{"coordinates":[2.345148291204887,48.89575027938109],"type":"Point"},"properties":{"id_projet":"ELEMENTAIRES (ann\u00e9e scolaire 2017\/2018)","libelle":"CHAMPIONNET (69) ELEM","adresse":"69 rue CHAMPIONNET","arr_libelle":"18\u00e8me Ardt","arr_insee":75118,"annee_scol":null,"type_etabl":null,"created_user":null,"created_date":null,"last_edited_user":null,"last_edited_date":null,"geo_point_2d":{"lon":2.345148291204887,"lat":48.89575027938109}}},{"type":"Feature","geometry":{"coordinates":[2.3374555544997286,48.90006352093851],"type":"Point"},"properties":{"id_projet":"3220","libelle":"FRANCOISE DORLEAC ELEM (8)B","adresse":"8 place FRANCOISE DORLEAC","arr_libelle":"18\u00e8me Ardt","arr_insee":75118,"annee_scol":null,"type_etabl":null,"created_user":null,"created_date":null,"last_edited_user":null,"last_edited_date":null,"geo_point_2d":{"lon":2.3374555544997286,"lat":48.90006352093851}}},{"type":"Feature","geometry":{"coordinates":[2.3645871569639865,48.892715723812195],"type":"Point"},"properties":{"id_projet":"4840","libelle":"CUGNOT (30) POLY","adresse":"30 RUE CUGNOT","arr_libelle":"18\u00e8me Ardt","arr_insee":75118,"annee_scol":null,"type_etabl":null,"created_user":null,"created_date":null,"last_edited_user":null,"last_edited_date":null,"geo_point_2d":{"lon":2.3645871569639865,"lat":48.892715723812195}}},{"type":"Feature","geometry":{"coordinates":[2.333969772249816,48.886944762308715],"type":"Point"},"properties":{"id_projet":"ELEMENTAIRES (ann\u00e9e scolaire 2022\/2023)","libelle":"LEPIC (62) ELEM","adresse":"62 RUE LEPIC","arr_libelle":"18\u00e8me Ardt","arr_insee":75118,"annee_scol":"2022-2023","type_etabl":"El\u00e9mentaire","created_user":null,"created_date":null,"last_edited_user":null,"last_edited_date":null,"geo_point_2d":{"lon":2.333969772249816,"lat":48.886944762308715}}},{"type":"Feature","geometry":{"coordinates":[2.3527287013006752,48.889684350238106],"type":"Point"},"properties":{"id_projet":"ELEMENTAIRES (ann\u00e9e scolaire 2020\/2021)","libelle":"PIERRE BUDIN (5) ELEM","adresse":"5 RUE PIERRE BUDIN","arr_libelle":"18\u00e8me Ardt","arr_insee":75118,"annee_scol":null,"type_etabl":null,"created_user":null,"created_date":null,"last_edited_user":null,"last_edited_date":null,"geo_point_2d":{"lon":2.3527287013006752,"lat":48.889684350238106}}},{"type":"Feature","geometry":{"coordinates":[2.3422511488545315,48.899127617384266],"type":"Point"},"properties":{"id_projet":"4883","libelle":"FERNAND LABORI (19) MAT","adresse":"19 RUE FERNAND LABORI","arr_libelle":"18\u00e8me Ardt","arr_insee":75118,"annee_scol":null,"type_etabl":null,"created_user":null,"created_date":null,"last_edited_user":null,"last_edited_date":null,"geo_point_2d":{"lon":2.3422511488545315,"lat":48.899127617384266}}},{"type":"Feature","geometry":{"coordinates":[2.351945405253571,48.89445882794094],"type":"Point"},"properties":{"id_projet":"4885","libelle":"GERARD PHILIPE","adresse":"8 RUE DES AMIRAUX","arr_libelle":"18\u00e8me Ardt","arr_insee":75118,"annee_scol":"2020-2021","type_etabl":"COL","created_user":null,"created_date":null,"last_edited_user":null,"last_edited_date":null,"geo_point_2d":{"lon":2.351945405253571,"lat":48.89445882794094}}},{"type":"Feature","geometry":{"coordinates":[2.3514565316595917,48.89357315361589],"type":"Point"},"properties":{"id_projet":"4886","libelle":"SIMPLON (14) POLY","adresse":"14 RUE SIMPLON","arr_libelle":"18\u00e8me Ardt","arr_insee":75118,"annee_scol":"2021-2022","type_etabl":"Polyvalent","created_user":null,"created_date":null,"last_edited_user":null,"last_edited_date":null,"geo_point_2d":{"lon":2.3514565316595917,"lat":48.89357315361589}}},{"type":"Feature","geometry":{"coordinates":[2.3298061120526445,48.89035961315118],"type":"Point"},